Fuel Type Code,Station Name,Street Address,Intersection Directions,City,State,ZIP,Plus4,Station Phone,Status Code,Expected Date,Groups With Access Code,Access Days Time,Cards Accepted,BD Blends,NG Fill Type Code,NG PSI,EV Level1 EVSE Num,EV Level2 EVSE Num,EV DC Fast Count,EV Other Info,EV Network,EV Network Web,Geocode Status,Latitude,Longitude,Date Last Confirmed,ID,Updated At,Owner Type Code,Federal Agency ID,Federal Agency Name,Open Date,Hydrogen Status Link,NG Vehicle Class,LPG Primary,E85 Blender Pump,EV Connector Types,Country,Intersection Directions (French),Access Days Time (French),BD Blends (French),Groups With Access Code (French),Hydrogen Is Retail,Access Code,Access Detail Code,Federal Agency Code,Facility Type,CNG Dispenser Num,CNG On-Site Renewable Source,CNG Total Compression Capacity,CNG Storage Capacity,LNG On-Site Renewable Source,E85 Other Ethanol Blends,EV Pricing,EV Pricing (French),LPG Nozzle Types,Hydrogen Pressures,Hydrogen Standards,CNG Fill Type Code,CNG PSI,CNG Vehicle Class,LNG Vehicle Class,EV On-Site Renewable Source,Restricted Access,RD Blends,RD Blends (French),RD Blended with Biodiesel,RD Maximum Biodiesel Level,NPS Unit Name,CNG Station Sells Renewable Natural Gas,LNG Station Sells Renewable Natural Gas,Maximum Vehicle Class,EV Workplace Charging
ELEC,City of Lacey - City Hall Parking,420 College St,"At 3rd Ave SE, next to police station",Lacey,WA,98503,,360-491-3214,E,,Public,24 hours daily,,,,,,4,,,Non-Networked,,200-9,47.044011,-122.822404,2023-01-10,33351,2023-02-14 15:54:11 UTC,LG,,,2018-01-15,,,,,J1772,US,,,,Public,,public,,,MUNI_GOV,,,,,,,Free; 3 hour maximum charging session,,,,,,,,,,false,,,,,,,,LD,false
ELEC,Seattle-Tacoma International Airport - General Parking,17801 Pacific Hwy S,"5th floor parking garage; rows D, G, and I",Seattle,WA,98188,,206-787-5388,E,,Public,24 hours daily; pay lot; Drivers must bring their own J1772 cordset for Level 1 charging,,,,,121,,,,Non-Networked,,200-8,47.443377,-122.296229,2023-08-10,33717,2023-08-10 16:58:49 UTC,P,,,2010-03-01,,,,,NEMA520,US,,,,Public,,public,,,AIRPORT,,,,,,,Free,,,,,,,,,,false,,,,,,,,LD,false
ELEC,Avista Corp,1411 E Mission Ave,,Spokane,WA,99252,,509-489-0500,E,,Public,24 hours daily; Drivers must bring their own J1772 cordset for Level 1 charging,,,,,1,2,,,Non-Networked,,GPS,47.673347,-117.388933,2023-06-12,35620,2023-06-12 16:56:16 UTC,P,,,2010-04-15,,,,,J1772 NEMA520,US,,,,Public,,public,,,OFFICE_BLDG,,,,,,,Free,,,,,,,,,,false,,,,,,,,LD,false
ELEC,Steam Plant Parking,130 S Post St,,Spokane,WA,99201,,800-227-9187,E,,Public,24 hours daily,,,,,,6,,,Non-Networked,,GPS,47.65579218,-117.4236637,2023-04-06,35621,2023-04-06 17:17:01 UTC,P,,,2010-04-15,,,,,J1772,US,,,,Public,,public,,,RESTAURANT,,,,,,,Free,,,,,,,,,,false,,,,,,,,LD,false
ELEC,BELLEVUE BELLEVUE CH 1,450 110th Ave NE,,Bellevue,WA,98004,,888-758-4389,E,,Public,24 hours daily,,,,,,2,,,ChargePoint Network,http://www.chargepoint.com/,GPS,47.614744,-122.193162,2023-11-10,37181,2023-11-10 00:21:19 UTC,,,,2010-12-15,,,,,J1772,US,,,,Public,,public,,,,,,,,,,,,,,,,,,,,,,,,,,,,,false
ELEC,KING COUNTY DES ISSAQUAH P&R 2,1755 Highlands Dr NE,,Issaquah,WA,98027,,888-758-4389,E,,Public,24 hours daily,,,,,,2,,,ChargePoint Network,http://www.chargepoint.com/,GPS,47.545324,-122.0195,2023-11-10,38082,2023-11-10 00:38:49 UTC,,,,2008-02-15,,,,,J1772,US,,,,Public,,public,,,,,,,,,,,,,,,,,,,,,,,,,,,,,false
ELEC,UWB CASCADIA CC NORTH LEVEL 3 N,18500 Campus Way NE,,Bothell,WA,98011,,888-758-4389,E,,Public,24 hours daily,,,,,,2,,,ChargePoint Network,http://www.chargepoint.com/,GPS,47.761878,-122.191915,2023-11-10,38952,2023-11-10 00:17:15 UTC,,,,2011-03-15,,,,,J1772,US,,,,Public,,public,,,,,,,,,,,,,,,,,,,,,,,,,,,,,false
ELEC,CITY OF REDMOND CITY HALL DUAL,15670 NE 85th St,,Redmond,WA,98052,,888-758-4389,E,,Public,24 hours daily,,,,,,2,,,ChargePoint Network,http://www.chargepoint.com/,GPS,47.679224,-122.12995,2023-11-10,38959,2023-11-10 00:11:42 UTC,,,,2011-03-15,,,,,J1772,US,,,,Public,,public,,,,,,,,,,,,,,,,,,,,,,,,,,,,,false
ELEC,CITY OF REDMOND MOC #1 PUBLIC,18080 NE 76th St,,Redmond,WA,98052,,888-758-4389,E,,Public,24 hours daily,,,,,,2,,,ChargePoint Network,http://www.chargepoint.com/,GPS,47.672359,-122.099034,2023-11-10,38966,2023-11-10 00:11:42 UTC,,,,2011-03-15,,,,,J1772,US,,,,Public,,public,,,,,,,,,,,,,,,,,,,,,,,,,,,,,false
ELEC,WILLOWS LODGE WILLOWS #2,14580 NE 145th St,,Woodinville,WA,98072,,888-758-4389,E,,Public,24 hours daily,,,,,,2,,,ChargePoint Network,http://www.chargepoint.com/,GPS,47.734211,-122.147041,2023-11-10,38976,2023-11-10 00:25:38 UTC,,,,2011-03-15,,,,,J1772,US,,,,Public,,public,,,,,,,,,,,,,,,,,,,,,,,,,,,,,false
ELEC,Bellingham Nissan,1516 Iowa St,,Bellingham,WA,98229,,360-733-7300,E,,Public - Call ahead,Dealership business hours,,,,,,2,1,,Non-Networked,,200-9,48.755607,-122.454132,2020-06-09,39778,2021-03-11 23:22:17 UTC,P,,,2011-03-15,,,,,CHADEMO J1772,US,,,,Public - Appeler à l'avance,,public,CALL,,CAR_DEALER,,,,,,,Free,,,,,,,,,,false,,,,,,,,,false
ELEC,Advantage Nissan,5101 Auto Center Blvd,,Bremerton,WA,98312,,360-373-6300,E,,Public - Call ahead,Dealership business hours,,,,,,1,,,Non-Networked,,200-9,47.562162,-122.684286,2020-06-09,39779,2023-02-15 22:45:41 UTC,P,,,2011-03-15,,,,,J1772,US,,,,Public - Appeler à l'avance,,public,CALL,,CAR_DEALER,,,,,,,Free,,,,,,,,,,false,,,,,,,,,false
ELEC,Burien Nissan,16042 1st Ave S,,Burien,WA,98148,,206-242-7070,E,,Public - Call ahead,Dealership business hours,,,,,,2,1,,Non-Networked,,200-9,47.458466,-122.333257,2022-02-10,39780,2022-02-10 19:42:29 UTC,P,,,2011-03-15,,,,,CHADEMO J1772,US,,,,Public - Appeler à l'avance,,public,CALL,,CAR_DEALER,,,,,,,Free,,,,,,,,,,false,,,,,,,,LD,false
ELEC,Campbell-Nelson Nissan,24325 Highway 99,,Edmonds,WA,98026,,,E,,Public - Call ahead,Dealership business hours,,,,,,2,,,Non-Networked,,GPS,47.778229,-122.344838,2020-07-13,39782,2023-02-15 22:45:41 UTC,P,,,2011-03-15,,,,,J1772,US,,,,Public - Appeler à l'avance,,public,CALL,,CAR_DEALER,,,,,,,Free,,,,,,,,,,false,,,,,,,,,false
ELEC,Olympia Nissan,2220 Carriage Dr SW,,Olympia,WA,98502,,360-352-8558,E,,Public - Call ahead,Dealership business hours,,,,,,1,1,,Non-Networked,,200-9,47.031067,-122.930247,2022-03-07,39786,2023-02-14 15:54:11 UTC,P,,,2011-03-15,,,,,CHADEMO J1772 J1772COMBO,US,,,,Public - Appeler à l'avance,,public,CALL,,CAR_DEALER,,,,,,,Free,,,,,,,,,,false,,,,,,,,LD,false
ELEC,Bill Robertson Nissan,928 N 28th Ave,,Pasco,WA,99301,,509-545-3000,E,,Public - Call ahead,Dealership business hours,,,,,,1,,,Non-Networked,,200-9,46.236607,-119.128998,2020-06-09,39787,2023-02-15 22:45:41 UTC,P,,,2011-03-15,,,,,J1772,US,,,,Public - Appeler à l'avance,,public,CALL,,CAR_DEALER,,,,,,,Free,,,,,,,,,,false,,,,,,,,,false
ELEC,Dan Wilder Nissan,53 Jetta Way,,Port Angeles,WA,98362,,360-452-9268,E,,Public - Call ahead,Dealership business hours,,,,,,2,1,,Non-Networked,,200-9,48.102863,-123.342273,2022-02-10,39788,2022-02-10 19:42:29 UTC,P,,,2011-03-15,,,,,CHADEMO J1772,US,,,,Public - Appeler à l'avance,,public,CALL,,CAR_DEALER,,,,,,,Free,,,,,,,,,,false,,,,,,,,LD,false
ELEC,Bill Korum's Puyallup Nissan,101 Valley Ave NW,,Puyallup,WA,98371,,253-848-4507,E,,Public - Call ahead,Dealership business hours,,,,,,1,1,,Non-Networked,,200-9,47.207367,-122.294997,2022-02-10,39789,2022-02-10 19:42:29 UTC,P,,,2011-03-15,,,,,CHADEMO J1772 J1772COMBO,US,,,,Public - Appeler à l'avance,,public,CALL,,CAR_DEALER,,,,,,,Free,,,,,,,,,,false,,,,,,,,LD,false
ELEC,Younker Nissan,3401 E Valley Rd,,Renton,WA,98058,,,E,,Public,Dealership business hours,,,,,,1,1,,Non-Networked,,GPS,47.448354,-122.2188,2022-03-07,39791,2023-02-14 15:54:11 UTC,P,,,2011-03-15,,,,,CHADEMO J1772 J1772COMBO,US,,,,Public,,public,,,CAR_DEALER,,,,,,,Free,,,,,,,,,,false,,,,,,,,LD,false
ELEC,Wendle Nissan,9000 N Division St,,Spokane,WA,99218,,509-468-9000,E,,Public - Call ahead,Dealership business hours,,,,,,1,,,Non-Networked,,200-9,47.739021,-117.409937,2020-06-09,39795,2021-03-11 23:22:17 UTC,P,,,2011-03-15,,,,,J1772,US,,,,Public - Appeler à l'avance,,public,CALL,,CAR_DEALER,,,,,,,Free,,,,,,,,,,false,,,,,,,,,false
ELEC,Dave Smith Nissan - Spokane,6901 E Sprague Ave,,Spokane Valley,WA,99212,,509-924-6242,E,,Public - Call ahead,Dealership business hours,,,,,,2,1,,Non-Networked,,200-9,47.657264,-117.312518,2022-02-10,39796,2022-02-10 19:42:29 UTC,P,,,2011-03-15,,,,,CHADEMO J1772,US,,,,Public - Appeler à l'avance,,public,CALL,,CAR_DEALER,,,,,,,Free,,,,,,,,,,false,,,,,,,,LD,false
ELEC,Tacoma Nissan,4030 S Tacoma Way,,Tacoma,WA,98409,,253-473-6200,E,,Public - Call ahead,Dealership business hours,,,,,,1,1,,Non-Networked,,200-9,47.21978,-122.48576,2022-02-10,39797,2022-02-10 19:42:29 UTC,P,,,2011-03-15,,,,,CHADEMO J1772 J1772COMBO,US,,,,Public - Appeler à l'avance,,public,CALL,,CAR_DEALER,,,,,,,Free,,,,,,,,,,false,,,,,,,,LD,false
ELEC,Alan Webb Nissan,3608 NE Auto Mall Dr,,Vancouver,WA,98662,,360-892-9004,E,,Public - Call ahead,Dealership business hours,,,,,,1,1,,Non-Networked,,200-9,45.648094,-122.597954,2022-02-10,39798,2022-02-10 19:42:29 UTC,P,,,2011-03-15,,,,,CHADEMO J1772 J1772COMBO,US,,,,Public - Appeler à l'avance,,public,CALL,,CAR_DEALER,,,,,,,Free,,,,,,,,,,false,,,,,,,,LD,false
ELEC,O'Brien Nissan,1395 Dalles Military Rd,,Walla Walla,WA,99362,,509-529-7000,E,,Public - Call ahead,Dealership business hours,,,,,,1,,,Non-Networked,,200-9,46.047464,-118.353406,2020-06-09,39799,2021-03-11 23:22:17 UTC,P,,,2011-03-15,,,,,J1772,US,,,,Public - Appeler à l'avance,,public,CALL,,CAR_DEALER,,,,,,,Free,,,,,,,,,,false,,,,,,,,,false
ELEC,KEY CENTER KEY CENTER 6,601 108th Ave NE,,Bellevue,WA,98004,,888-758-4389,E,,Public,24 hours daily,,,,,,2,,,ChargePoint Network,http://www.chargepoint.com/,GPS,47.616104,-122.19696,2023-11-10,40383,2023-11-10 00:33:28 UTC,,,,2011-05-15,,,,,J1772,US,,,,Public,,public,,,,,,,,,,,,,,,,,,,,,,,,,,,,,false
ELEC,KRC SKYLINE SKYLINE #1,10900 NE 4th St,,Bellevue,WA,98004,,888-758-4389,E,,Public,24 hours daily,,,,,,2,,,ChargePoint Network,http://www.chargepoint.com/,GPS,47.61434,-122.194037,2023-11-10,40384,2023-11-10 00:28:23 UTC,,,,2011-05-15,,,,,J1772,US,,,,Public,,public,,,,,,,,,,,,,,,,,,,,,,,,,,,,,false
ELEC,Caplan's Rainbow Parking,214 Columbia St,,Seattle,WA,98104,,206-682-2991,T,2022-12-31,TEMPORARILY UNAVAILABLE (Public),Garage business hours; see the valet for access,,,,,,2,,,Non-Networked,,200-8,47.604115,-122.332907,2022-01-10,41579,2022-02-10 19:42:29 UTC,P,,,2011-10-01,,,,,J1772,US,,,,TEMPORAIREMENT SUSPENDU (Public),,public,,,PARKING_GARAGE,,,,,,,Free,,,,,,,,,,false,,,,,,,,,false
ELEC,CITY OF SEATAC CITY HALL 1,4800 S 188th St,,SeaTac,WA,98188,,888-758-4389,E,,Public,24 hours daily,,,,,,2,,,ChargePoint Network,http://www.chargepoint.com/,GPS,47.434021,-122.273183,2023-11-10,41776,2023-11-10 00:17:08 UTC,,,,2011-12-31,,,,,J1772,US,,,,Public,,public,,,,,,,,,,,,,,,,,,,,,,,,,,,,,false
ELEC,BELLEVUE SBCC #2,14509 SE Newport Way,,Bellevue,WA,98006,,888-758-4389,E,,Public,24 hours daily,,,,,,2,,,ChargePoint Network,http://www.chargepoint.com/,GPS,47.568871,-122.145285,2023-11-10,42228,2023-11-10 00:34:15 UTC,,,,2011-11-15,,,,,J1772,US,,,,Public,,public,,,,,,,,,,,,,,,,,,,,,,,,,,,,,false
ELEC,SAMMAMISH GARAGE 1,801 228th Ave SE,,Sammamish,WA,98075,,888-758-4389,E,,Public,24 hours daily,,,,,,2,,,ChargePoint Network,http://www.chargepoint.com/,GPS,47.601657,-122.036938,2023-11-10,42240,2023-11-10 00:17:58 UTC,,,,2011-11-15,,,,,J1772,US,,,,Public,,public,,,,,,,,,,,,,,,,,,,,,,,,,,,,,false
ELEC,IBEW LOCAL 46 IBEW LOCAL 46 1,19802 62nd Ave S,,Kent,WA,98032,,888-758-4389,E,,Public,24 hours daily,,,,,,2,,,ChargePoint Network,http://www.chargepoint.com/,GPS,47.424222,-122.256619,2023-11-10,43299,2023-11-10 00:19:18 UTC,,,,2012-01-15,,,,,J1772,US,,,,Public,,public,,,,,,,,,,,,,,,,,,,,,,,,,,,,,false
ELEC,VALLEY MED CTR MAIN LOT #5,400 S 43rd St,,Renton,WA,98055,,888-758-4389,E,,Public,24 hours daily,,,,,,2,,,ChargePoint Network,http://www.chargepoint.com/,GPS,47.443255,-122.212445,2023-11-10,43303,2023-11-10 00:06:15 UTC,,,,2012-01-15,,,,,J1772,US,,,,Public,,public,,,,,,,,,,,,,,,,,,,,,,,,,,,,,false
ELEC,VALLEY MED CTR N GARAGE #1,4033 Talbot Rd S,,Renton,WA,98055,,888-758-4389,E,,Public,24 hours daily,,,,,,2,,,ChargePoint Network,http://www.chargepoint.com/,GPS,47.444606,-122.214491,2023-11-10,43305,2023-11-10 00:20:04 UTC,,,,2012-01-15,,,,,J1772,US,,,,Public,,public,,,,,,,,,,,,,,,,,,,,,,,,,,,,,false
ELEC,TAC PW PARKING A ST GARAGE 01,110 S 10th St,,Tacoma,WA,98402,,888-758-4389,E,,Public,24 hours daily,,,,,,2,,,ChargePoint Network,http://www.chargepoint.com/,GPS,47.253809,-122.437429,2023-11-10,43804,2023-11-10 00:19:49 UTC,,,,2012-01-31,,,,,J1772,US,,,,Public,,public,,,,,,,,,,,,,,,,,,,,,,,,,,,,,false
ELEC,TAC PW PARKING GLASS MUSEUM 01,1801 Dock St,,Tacoma,WA,98402,,888-758-4389,E,,Public,24 hours daily,,,,,,2,,,ChargePoint Network,http://www.chargepoint.com/,GPS,47.245934,-122.43398,2023-11-10,43806,2023-11-10 00:19:49 UTC,,,,2012-01-31,,,,,J1772,US,,,,Public,,public,,,,,,,,,,,,,,,,,,,,,,,,,,,,,false
ELEC,City of Seattle - Central Library,1000 4th Ave,,Seattle,WA,98104,,206-386-4636,E,,Public,24 hours daily,,,,,,3,,,Non-Networked,,200-9,47.606684,-122.332664,2023-01-10,44153,2023-02-14 15:54:11 UTC,LG,,,2011-12-01,,,,,J1772,US,,,,Public,,public,,,LIBRARY,,,,,,,$2 per session,,,,,,,,,,false,,,,,,,,LD,false
ELEC,City of Seattle - Seattle Center,516 Harrison St,Located in the 5th Ave Garage,Seattle,WA,98109,,206-684-7340,E,,Public - Credit card at all times,24 hours daily,A D M V,,,,,6,,,Non-Networked,,200-8,47.622085,-122.347124,2023-01-10,44159,2023-02-14 15:54:11 UTC,LG,,,2011-12-01,,,,,J1772,US,,,,Public - Carte de crédit en tout temps,,public,CREDIT_CARD_ALWAYS,,MUNI_GOV,,,,,,,Free; parking fee,,,,,,,,,,false,,,,,,,,LD,false
ELEC,Valley Nissan,1010 S 1st St,,Yakima,WA,98901,,509-453-3125,E,,Public - Call ahead,Dealership business hours,,,,,,1,,,Non-Networked,,200-9,46.590246,-120.500687,2020-06-09,44509,2023-02-15 22:45:41 UTC,P,,,2011-11-30,,,,,J1772,US,,,,Public - Appeler à l'avance,,public,CALL,,CAR_DEALER,,,,,,,Free,,,,,,,,,,false,,,,,,,,,false
ELEC,Snohomish County - Evergreen Fairgrounds,14405 179th Ave SE,,Monroe,WA,98272,,425-388-6619,E,,Public,8am-5pm M-F,,,,,,2,,,Non-Networked,,200-9,47.868914,-121.987449,2023-08-10,45209,2023-08-10 16:58:49 UTC,LG,,,2012-01-20,,,,,J1772,US,,,,Public,,public,,,MUNI_GOV,,,,,,,,,,,,,,,,,false,,,,,,,,LD,false
ELEC,Seattle City Light - Newhalem Parking Lot,500 Newhalem St,,Rockport,WA,98283,,,E,,Public,24 hours daily,,,,,,4,,,Non-Networked,,200-8,48.673466,-121.261467,2023-01-10,45654,2023-02-14 15:54:11 UTC,LG,,,2012-01-01,,,,,J1772,US,,,,Public,,public,,,UTILITY,,,,,,,,,,,,,,,,,false,,,,,,,,LD,false
ELEC,PeaceHealth,1115 SE 164th Ave,,Vancouver,WA,98684,,,E,,Public,Employee and guest use only; non-employee use after hours,,,,,,2,,,Non-Networked,,GPS,45.63017,-122.504,2023-09-14,47885,2023-09-14 14:01:49 UTC,P,,,2012-05-31,,,,,J1772,US,,,,Public,,public,,,OFFICE_BLDG,,,,,,,,,,,,,,,,,true,,,,,,,,,true
ELEC,KING COUNTY DES KSC STATION #1,201 S Jackson St,,Seattle,WA,98104,,888-758-4389,E,,Public,24 hours daily,,,,,,1,,,ChargePoint Network,http://www.chargepoint.com/,GPS,47.598663,-122.331009,2023-11-10,49230,2023-11-10 00:13:52 UTC,,,,2012-07-31,,,,,J1772,US,,,,Public,,public,,,,,,,,,,,,,,,,,,,,,,,,,,,,,false
ELEC,SKAGIT COUNTY ADMIN STATION 2,1800 Continental Pl,,Mount Vernon,WA,98273,,888-758-4389,E,,Public,24 hours daily,,,,,,1,,,ChargePoint Network,http://www.chargepoint.com/,GPS,48.437569,-122.325494,2023-11-10,50210,2023-11-10 00:06:08 UTC,,,,2012-11-20,,,,,J1772,US,,,,Public,,public,,,,,,,,,,,,,,,,,,,,,,,,,,,,,false
ELEC,Nikola Broadband,615 N 5th Ave,,Sequim,WA,98382,,360-582-1051,E,,Public,24 hours daily,,,,,,1,,,Non-Networked,,200-8,48.08536,-123.1135,2023-06-12,51905,2023-06-12 16:56:16 UTC,P,,,2013-05-15,,,,,J1772,US,,,,Public,,public,,,OFFICE_BLDG,,,,,,,Free,,,,,,,,,,false,,,,,,,,LD,false
ELEC,Mazama Country Inn,15 Country Rd,,Mazama,WA,98833,,800-843-7951,E,,Public - Call ahead,24 hours daily; for guest use only; Drivers must bring their own J1772 cordset for Level 1 charging,,,,,2,1,,,Non-Networked,,200-9,48.594482,-120.406494,2021-12-09,53702,2022-02-10 21:00:18 UTC,P,,,2013-11-01,,,,,J1772 NEMA1450,US,,,,Public - Appeler à l'avance,,public,CALL,,HOTEL,,,,,,,Free,,,,,,,,,,true,,,,,,,,LD,false
ELEC,VIA6 VIA6-SOUTH,2121 6th Ave,,Seattle,WA,98121,,888-758-4389,E,,Public,24 hours daily,,,,,,2,,,ChargePoint Network,http://www.chargepoint.com/,GPS,47.613883,-122.339405,2023-11-10,55995,2023-11-10 00:26:16 UTC,,,,2014-01-20,,,,,J1772,US,,,,Public,,public,,,,,,,,,,,,,,,,,,,,,,,,,,,,,false
ELEC,800 FIFTH AVE STATION 2,800  5th Ave,,Seattle,WA,98104,,888-758-4389,E,,Public,24 hours daily,,,,,,2,,,ChargePoint Network,http://www.chargepoint.com/,GPS,47.605599,-122.330626,2023-11-10,56870,2023-11-10 00:06:15 UTC,,,,2011-03-15,,,,,J1772,US,,,,Public,,public,,,,,,,,,,,,,,,,,,,,,,,,,,,,,false
ELEC,Campbell's Lake Chelan Resort,104 W Woodin Ave,,Chelan,WA,98816,,800-553-8225,E,,Public,24 hours daily; Drivers must bring their own J1772 cordset for Level 1 charging,,,,,10,,,,Non-Networked,,200-9,47.8399,-120.0199,2021-12-09,60002,2022-02-10 21:00:18 UTC,P,,,2013-10-04,,,,,NEMA520,US,,,,Public,,public,,,HOTEL,,,,,,,Free,,,,,,,,,,false,,,,,,,,LD,false
ELEC,Campbell's Lake Chelan Resort,104 W Woodin Ave,,Chelan,WA,98816,,800-553-8225,E,,Public,24 hours daily; for guest use only,,,,,,1,,,Non-Networked,,200-9,47.8399,-120.0199,2021-12-09,60003,2022-02-10 21:00:18 UTC,P,,,2013-10-04,,,,,J1772,US,,,,Public,,public,,,HOTEL,,,,,,,Free,,,,,,,,,,true,,,,,,,,LD,false
ELEC,Pine Near RV Park,316 Castle Ave,,Winthrop,WA,98862,,509-341-4062,E,,Public,24 hours daily; donations accepted,,,,,,1,,,Non-Networked,,200-8,48.476543,-120.180796,2021-12-09,60004,2022-02-10 19:42:29 UTC,P,,,2013-09-23,,,,,J1772,US,,,,Public,,public,,,RV_PARK,,,,,,,Free,,,,,,,,,,false,,,,,,,,LD,false
ELEC,Omak Inn,912 Koala Dr,,Omak,WA,98841,,800-204-4800  509-826-3822,E,,Public,24 hours daily,,,,,,1,,,Non-Networked,,GPS,48.421424,-119.503978,2021-12-09,60005,2022-02-10 19:42:29 UTC,P,,,2013-10-04,,,,,J1772,US,,,,Public,,public,,,INN,,,,,,,Free,,,,,,,,,,false,,,,,,,,LD,false
ELEC,59er Diner,15361 US 2,,Leavenworth,WA,98826,,509-763-2267,E,,Public,24 hours daily,,,,,,1,,,Non-Networked,,200-9,47.758434,-120.742416,2021-12-09,60006,2022-02-10 19:42:29 UTC,P,,,2014-01-15,,,,,J1772,US,,,,Public,,public,,,RESTAURANT,,,,,,,Free,,,,,,,,,,false,,,,,,,,LD,false
ELEC,Howard's Lakeshore Inn,233 Lakeshore Dr,,Pateros,WA,98846,,877-923-9555,E,,Public,24 hours daily,,,,,,1,,,Non-Networked,,GPS,48.051825,-119.901506,2023-01-10,60007,2023-02-14 15:54:11 UTC,P,,,2013-12-28,,,,,J1772,US,,,,Public,,public,,,HOTEL,,,,,,,Free,,,,,,,,,,false,,,,,,,,LD,false
ELEC,Birkenstock,17506 NE Delfel Ct,Exit I-5 at 179th St,Ridgefield,WA,98642,,360-574-4332,E,,Public - Call ahead,Store business hours; free with purchase,,,,,,1,,,Non-Networked,,GPS,45.748069,-122.662816,2023-09-14,60229,2023-09-14 14:01:49 UTC,P,,,2014-01-01,,,,,J1772,US,,,,Public - Appeler à l'avance,,public,CALL,,PARKING_LOT,,,,,,,Free,,,,,,,,,,false,,,,,,,,LD,false
ELEC,PARKMETRO1 PARK METRO #1,11101 NE 12th St,,Bellevue,WA,98004,,888-758-4389,E,,Public,24 hours daily,,,,,,2,,,ChargePoint Network,http://www.chargepoint.com/,GPS,47.620793,-122.192469,2023-11-10,60241,2023-11-10 00:06:17 UTC,,,,2014-02-07,,,,,J1772,US,,,,Public,,public,,,,,,,,,,,,,,,,,,,,,,,,,,,,,false
ELEC,VALLEY MED CTR MAIN LOT #8,4109-4251 Talbot Rd S,,Renton,WA,98055,,888-758-4389,E,,Public,24 hours daily,,,,,,2,,,ChargePoint Network,http://www.chargepoint.com/,GPS,47.443123,-122.212538,2023-11-10,60331,2023-11-10 00:05:54 UTC,,,,2014-02-13,,,,,J1772,US,,,,Public,,public,,,,,,,,,,,,,,,,,,,,,,,,,,,,,false
ELEC,Haselwood Chevrolet Buick GMC,501 W Hills Blvd,,Bremerton,WA,98312,,360-479-4910,E,,Public,Dealership business hours; for Chevrolet vehicles only,,,,,,2,,,Non-Networked,,200-9,47.557801,-122.675335,2023-09-14,60718,2023-09-14 14:01:49 UTC,P,,,2014-01-01,,,,,J1772,US,,,,Public,,public,,,CAR_DEALER,,,,,,,Free,,,,,,,,,,true,,,,,,,,HD,false
ELEC,Lakeside 24 Hour Fuel,16835 Lewis River Rd,,Cougar,WA,98616,,360-238-5202,E,,Public,6am-9pm daily (summer); 6am-6pm daily (winter),,,,,,1,,,Non-Networked,,200-9,46.051228,-122.301754,2023-06-12,60814,2023-06-12 16:56:16 UTC,P,,,2014-03-06,,,,,J1772,US,,,,Public,,public,,,GAS_STATION,,,,,,,$12 per session,,,,,,,,,,false,,,,,,,,MD,false
ELEC,Kitsap Transit Harborside Garage,60 Washington Ave,,Bremerton,WA,98337,,855-885-9571,E,,Public,,,,,,,4,,,OpConnect,http://www.opconnect.com/,GPS,47.56358,-122.62531,2023-11-10,61877,2023-11-10 01:17:31 UTC,,,,2013-12-31,,,,,J1772,US,,,,Public,,public,,,,,,,,,,,,,,,,,,,,,,,,,,,,,false
ELEC,Semiahmoo Resort,9565 Semiahmoo Pkwy,Located by the tennis courts,Blaine,WA,98230,,360-318-2000,E,,Public,24 hours daily; for guest use only,,,,,,1,,,Non-Networked,,GPS,48.989751,-122.773271,2023-06-12,62286,2023-06-12 16:56:16 UTC,P,,,2014-04-01,,,,,J1772,US,,,,Public,,public,,,HOTEL,,,,,,,,,,,,,,,,,true,,,,,,,,LD,false
ELEC,Pybus Public Market,7 N Worthen St,,Wenatchee,WA,98801,,509-888-3900,E,,Public,24 hours daily,,,,,,2,,,Non-Networked,,200-9,47.425375,-120.307608,2021-12-09,62516,2022-02-10 19:42:29 UTC,P,,,2014-07-07,,,,,J1772,US,,,,Public,,public,,,GROCERY,,,,,,,Free,,,,,,,,,,false,,,,,,,,LD,false
ELEC,UDR ASHTON BELL #2,10710 NE 10th St,,Bellevue,WA,98004,,888-758-4389,T,2023-10-27,TEMPORARILY UNAVAILABLE (Public),24 hours daily,,,,,,2,,,ChargePoint Network,http://www.chargepoint.com/,GPS,47.619772,-122.197194,2023-11-10,62654,2023-11-10 00:06:57 UTC,,,,2014-07-30,,,,,J1772,US,,,,TEMPORAIREMENT SUSPENDU (Public),,public,,,,,,,,,,,,,,,,,,,,,,,,,,,,,false
ELEC,Best Western Plus - Heritage Inn,151 E McLeod Rd,Located at Telegraph Road and East McLeod Road,Bellingham,WA,98226,,360-647-1912,E,,Public,24 hours daily; for guest use only,,,,,,1,,,Non-Networked,,GPS,48.783478,-122.484131,2023-01-10,62692,2023-02-14 15:54:11 UTC,P,,,2014-03-21,,,,,J1772,US,,,,Public,,public,,,HOTEL,,,,,,,Free,,,,,,,,,,true,,,,,,,,LD,false
ELEC,UDR TEN20 #1,1020 108th Ave NE,,Bellevue,WA,98004,,888-758-4389,E,,Public,24 hours daily,,,,,,2,,,ChargePoint Network,http://www.chargepoint.com/,GPS,47.61984,-122.19603,2023-11-10,62728,2023-11-10 00:06:46 UTC,,,,2014-07-31,,,,,J1772,US,,,,Public,,public,,,,,,,,,,,,,,,,,,,,,,,,,,,,,false
ELEC,AMLI SLU AMLI SLU #1,1250-1282 Republican St,,Seattle,WA,98109,,888-758-4389,T,2023-04-26,TEMPORARILY UNAVAILABLE (Public),24 hours daily,,,,,,2,,,ChargePoint Network,http://www.chargepoint.com/,GPS,47.62313,-122.331442,2023-11-10,62796,2023-11-10 00:06:30 UTC,,,,2014-08-06,,,,,J1772,US,,,,TEMPORAIREMENT SUSPENDU (Public),,public,,,,,,,,,,,,,,,,,,,,,,,,,,,,,false
ELEC,City of Chelan,137 E Johnson Ave,Located behind City Hall,Chelan,WA,98816,,509-682-8019,E,,Public,24 hours daily,,,,,,2,,,Non-Networked,,200-8,47.840838,-120.018402,2021-12-09,62973,2022-02-10 19:42:29 UTC,LG,,,2014-08-18,,,,,J1772,US,,,,Public,,public,,,MUNI_GOV,,,,,,,Free,,,,,,,,,,false,,,,,,,,LD,false
ELEC,LCC LCC H&S #1,1810 Maple Street,,Longview,WA,98632,,888-758-4389,E,,Public,24 hours daily,,,,,,2,,,ChargePoint Network,http://www.chargepoint.com/,GPS,46.141922,-122.940192,2023-11-10,63088,2023-11-10 00:06:22 UTC,,,,2014-08-27,,,,,J1772,US,,,,Public,,public,,,,,,,,,,,,,,,,,,,,,,,,,,,,,false
ELEC,UWMC UWMC #1,3100 Northup Way,,Bellevue,WA,98004,,888-758-4389,E,,Public,24 hours daily,,,,,,2,,,ChargePoint Network,http://www.chargepoint.com/,GPS,47.638269,-122.191294,2023-11-10,63110,2023-11-10 00:06:36 UTC,,,,2014-08-28,,,,,J1772,US,,,,Public,,public,,,,,,,,,,,,,,,,,,,,,,,,,,,,,false
ELEC,UWMC 4245 UWMC 4245 #1,4245 Roosevelt Ave NE,,Seattle,WA,98105,,888-758-4389,E,,Public,24 hours daily,,,,,,2,,,ChargePoint Network,http://www.chargepoint.com/,GPS,47.658961,-122.3185,2023-11-10,63313,2023-11-10 00:07:14 UTC,,,,2014-09-17,,,,,J1772,US,,,,Public,,public,,,,,,,,,,,,,,,,,,,,,,,,,,,,,false
ELEC,UWMC 4225 UWMC 4225 #1,4225 Roosevelt Way NE,,Seattle,WA,98105,,888-758-4389,E,,Public,24 hours daily,,,,,,2,,,ChargePoint Network,http://www.chargepoint.com/,GPS,47.658409,-122.318392,2023-11-10,63338,2023-11-10 00:07:11 UTC,,,,2014-09-19,,,,,J1772,US,,,,Public,,public,,,,,,,,,,,,,,,,,,,,,,,,,,,,,false
ELEC,Town Nissan,555 3rd St SE,,East Wenatchee,WA,98802,,509-662-5125,E,,Public - Call ahead,Dealership business hours,,,,,,1,1,,Non-Networked,,200-9,47.400783,-120.279071,2022-02-10,63444,2022-02-10 19:42:29 UTC,P,,,2010-12-17,,,,,CHADEMO J1772,US,,,,Public - Appeler à l'avance,,public,CALL,,CAR_DEALER,,,,,,,Free,,,,,,,,,,false,,,,,,,,LD,false
ELEC,MAIN HOSPITAL SILVER PARKING,11300-11398 128th Ave NE,,Kirkland,WA,98034,,888-758-4389,E,,Public,24 hours daily,,,,,,2,,,ChargePoint Network,http://www.chargepoint.com/,GPS,47.716056,-122.179455,2023-11-10,63780,2023-11-10 00:07:03 UTC,,,,2014-10-17,,,,,J1772,US,,,,Public,,public,,,,,,,,,,,,,,,,,,,,,,,,,,,,,false
ELEC,MAIN HOSPITAL DEYOUNG1,12039 NE 128th St,,Kirkland,WA,98034,,888-758-4389,E,,Public,24 hours daily,,,,,,2,,,ChargePoint Network,http://www.chargepoint.com/,GPS,47.714435,-122.179399,2023-11-10,63781,2023-11-10 00:07:03 UTC,,,,2014-10-17,,,,,J1772,US,,,,Public,,public,,,,,,,,,,,,,,,,,,,,,,,,,,,,,false
ELEC,MAIN HOSPITAL BLUE PARKING,12040 NE 128th St,,Kirkland,WA,98034,,888-758-4389,E,,Public,24 hours daily,,,,,,2,,,ChargePoint Network,http://www.chargepoint.com/,GPS,47.714793,-122.176869,2023-11-10,63782,2023-11-10 00:07:03 UTC,,,,2014-10-17,,,,,J1772,US,,,,Public,,public,,,,,,,,,,,,,,,,,,,,,,,,,,,,,false
ELEC,Leskovar Mitsubishi,3020 W Clearwater Ave,Located by the sales and service departments,Kennewick,WA,99336,,509-783-6141,E,,Public - Call ahead,Dealership business hours; for customer use only,,,,,,3,,,Non-Networked,,200-9,46.213233,-119.162367,2023-06-12,64135,2023-06-12 16:56:16 UTC,P,,,2014-03-01,,,,,J1772,US,,,,Public - Appeler à l'avance,,public,CALL,,CAR_DEALER,,,,,,,Free,,,,,,,,,,true,,,,,,,,LD,false
ELEC,BMW SEATTLE BMW SALES,1002 Airport Way S,,Seattle,WA,98065,,888-758-4389,E,,Public,24 hours daily,,,,,,2,,,ChargePoint Network,http://www.chargepoint.com/,GPS,47.594042,-122.323977,2023-11-10,64185,2023-11-10 00:06:07 UTC,,,,2014-11-14,,,,,J1772,US,,,,Public,,public,,,,,,,,,,,,,,,,,,,,,,,,,,,,,false
ELEC,HARBOUR POINT HBP STATION A,11700 Mukilteo Speedway,,Mukilteo,WA,98275,,888-758-4389,E,,Public,24 hours daily,,,,,,2,,,ChargePoint Network,http://www.chargepoint.com/,GPS,47.890423,-122.286971,2023-11-10,64475,2023-11-10 00:07:58 UTC,,,,2014-12-03,,,,,J1772,US,,,,Public,,public,,,,,,,,,,,,,,,,,,,,,,,,,,,,,false
ELEC,Mellisoni Vineyard,3155 US 97A,,Chelan,WA,98816,,509-293-1891,E,,Public,24 hours daily; Drivers must bring their own J1772 cordset for Level 1 charging,,,,,2,1,,,Non-Networked,,GPS,47.83522282290976,-120.068983390213,2021-12-09,64500,2022-02-10 21:00:18 UTC,P,,,2014-11-29,,,,,J1772 NEMA1450,US,,,,Public,,public,,,BREWERY_DISTILLERY_WINERY,,,,,,,Free,,,,,,,,,,false,,,,,,,,LD,false
ELEC,Snoqualmie Casino,37500 SE N Bend,Located in the parking garage on each level of the garage,Issaquah,WA,98065,,425-888-1234,E,,Public,24 hours daily; guest use only,,,,,,8,,,Non-Networked,,200-9,47.519113,-121.841787,2023-06-12,65414,2023-06-12 16:56:16 UTC,P,,,2015-01-01,,,,,J1772,US,,,,Public,,public,,,OTHER_ENTERTAINMENT,,,,,,,Free,,,,,,,,,,false,,,,,,,,LD,false
ELEC,Wenatchee - Wenatchee Convention Center,200 N Columbia St,,Wenatchee,WA,98801,,888-833-2148,E,,Public,24 hours daily,,,,,,1,1,,EVCS,https://evcs.com,200-8,47.42745,-120.31242,2023-05-30,65859,2023-06-08 20:42:22 UTC,,,,2012-06-30,,,,,CHADEMO J1772,US,,,,Public,,public,,,,,,,,,,"Level 2: $4 per session or $19.99 for monthly plan, DC Fast: $7.50 per session or $19.99 for monthly plan",,,,,,,,,,,,,,,,,,,false
ELEC,Centralia - Wendy's,817 Harrison Avenue,,Centralia,WA,98531,,888-833-2148,E,,Public,24 hours daily,,,,,,1,1,,EVCS,https://evcs.com,200-8,46.72527,-122.97422,2023-05-30,65861,2023-06-08 20:42:22 UTC,,,,2012-05-31,,,,,CHADEMO J1772,US,,,,Public,,public,,,,,,,,,,"Level 2: $4 per session or $19.99 for monthly plan, DC Fast: $7.50 per session or $19.99 for monthly plan",,,,,,,,,,,,,,,,,,,false
ELEC,Bellingham - Sehome Village,222 36th St,,Bellingham,WA,98325,,888-833-2148,E,,Public,24 hours daily,,,,,,1,1,,EVCS,https://evcs.com,200-8,48.73115,-122.47117,2023-05-30,65862,2023-06-08 20:42:22 UTC,,,,2012-05-31,,,,,CHADEMO J1772,US,,,,Public,,public,,,,,,,,,,"DC Fast: $7.50 per session or $19.99 for monthly plan, Level 2: $4 per session or $19.99 for monthly plan",,,,,,,,,,,,,,,,,,,false
ELEC,Castle Rock - Cascade Select Market,204 W. Cowlitz Street,,Castle Rock,WA,98611,,888-833-2148,E,,Public,24 hours daily,,,,,,1,1,,EVCS,https://evcs.com,200-8,46.27622,-122.91012,2023-05-30,65864,2023-06-08 20:42:22 UTC,,,,2012-08-09,,,,,CHADEMO J1772,US,,,,Public,,public,,,,,,,,,,"Level 2: $4 per session or $19.99 for monthly plan, DC Fast: $7.50 per session or $19.99 for monthly plan",,,,,,,,,,,,,,,,,,,false
ELEC,Burlington - The Outlet Shoppes,448 Fashion Way,,Burlington,WA,98233,,888-833-2148,E,,Public,24 hours daily,,,,,,1,1,,EVCS,https://evcs.com,200-8,48.45625,-122.33954,2023-05-30,65865,2023-06-08 20:42:22 UTC,,,,2012-05-31,,,,,CHADEMO J1772,US,,,,Public,,public,,,,,,,,,,"DC Fast: $7.50 per session or $19.99 for monthly plan, Level 2: $4 per session or $19.99 for monthly plan",,,,,,,,,,,,,,,,,,,false
ELEC,Ridgefield - Country Café,6370 N. 1st Circle,,Ridgefield,WA,98642,,888-833-2148,E,,Public,24 hours daily,,,,,,1,1,,EVCS,https://evcs.com,200-8,45.81749,-122.68359,2023-05-30,65866,2023-06-08 20:42:22 UTC,,,,2012-05-31,,,,,CHADEMO J1772,US,,,,Public,,public,,,,,,,,,,"DC Fast: $7.50 per session or $19.99 for monthly plan, Level 2: $4 per session or $19.99 for monthly plan",,,,,,,,,,,,,,,,,,,false
ELEC,I-5 Custer SB Rest Area,3063 Creasy Rd,,Custer,WA,98240,,888-833-2148,E,,Public,24 hours daily,,,,,,2,,,EVCS,https://evcs.com,200-8,48.92653,-122.64552,2023-05-30,65868,2023-06-08 20:42:22 UTC,,,,2012-05-31,,,,,J1772,US,,,,Public,,public,,,,,,,,,,Level 2: $4 per session or $19.99 for monthly plan,,,,,,,,,,,,,,,,,,,false
ELEC,Skykomish - Sky Deli,148 5th Street N,,Skykomish,WA,98288,,888-833-2148,E,,Public,24 hours daily,,,,,,1,1,,EVCS,https://evcs.com,200-8,47.7114,-121.36073,2023-05-30,65869,2023-06-08 20:42:22 UTC,,,,2012-05-31,,,,,CHADEMO J1772,US,,,,Public,,public,,,,,,,,,,"DC Fast: $7.50 per session or $19.99 for monthly plan, Level 2: $4 per session or $19.99 for monthly plan",,,,,,,,,,,,,,,,,,,false
ELEC,I-5 Gee Creek NB Rest Area,"Interstate 5, Milepost 11 South",,Ridgefield,WA,98642,,866-300-3827,E,,Public - Credit card at all times,24 hours daily,A D Debit M V,,,,,2,,,EVCS,https://evcs.com,GPS,45.77671,-122.669,2023-07-11,65870,2023-07-11 18:28:56 UTC,P,,,2012-05-31,,,,,J1772,US,,,,Public - Carte de crédit en tout temps,,public,CREDIT_CARD_ALWAYS,,REST_STOP,,,,,,,Level 2: $4 per session or $19.99 for monthly plan,,,,,,,,,,false,,,,,,,,LD,false
ELEC,525 NORTHGATE RETAIL #1,525 NE Northgate Way,,Seattle,WA,98125,,888-758-4389,E,,Public,24 hours daily,,,,,,2,,,ChargePoint Network,http://www.chargepoint.com/,GPS,47.707951,-122.321496,2023-11-10,66221,2023-11-10 00:08:08 UTC,,,,2015-02-28,,,,,J1772,US,,,,Public,,public,,,,,,,,,,,,,,,,,,,,,,,,,,,,,false
ELEC,Power Trip Energy Corp,83 Denny Ave,,Port Townsend,WA,98368,,360-643-3080,E,,Public,24 hours daily,,,,,,2,,,Non-Networked,,200-9,48.093634,-122.813252,2022-09-14,66418,2023-02-14 15:54:11 UTC,P,,,2012-06-01,,,,,J1772,US,,,,Public,,public,,,OFFICE_BLDG,,,,,,,Free,,,,,,,,,SOLAR,false,,,,,,,,LD,false
ELEC,John L Scott Real Estate,2219 W Sims Way,First space in parking lot against building,Port Townsend,WA,98368,,360-385-4115,E,,Public - Call ahead,24 hours daily,,,,,,1,,,Non-Networked,,200-9,48.102409,-122.80229,2022-09-14,66419,2023-02-14 15:54:11 UTC,P,,,2015-02-01,,,,,J1772,US,,,,Public - Appeler à l'avance,,public,CALL,,OFFICE_BLDG,,,,,,,Free,,,,,,,,,,false,,,,,,,,LD,false
ELEC,GreenPod Development,1531 W Sims Way,,Port Townsend,WA,98368,,360-358-5614,E,,Public,24 hours daily,,,,,,2,,,Non-Networked,,200-9,48.103061,-122.794143,2022-07-12,66421,2023-02-14 15:54:11 UTC,P,,,2015-02-03,,,,,J1772,US,,,,Public,,public,,,OFFICE_BLDG,,,,,,,Free,,,,,,,,,,false,,,,,,,,LD,false
ELEC,Windermere Real Estate,1220 Water St,On the far end of the old brick gas house at rear of parking lot.,Port Townsend,WA,98368,,360-385-9344,E,,Public - Call ahead,8am-5pm daily,,,,,,1,,,Non-Networked,,200-9,48.113018,-122.760544,2022-09-14,66422,2023-02-14 15:54:11 UTC,P,,,2015-02-04,,,,,J1772,US,,,,Public - Appeler à l'avance,,public,CALL,,OFFICE_BLDG,,,,,,,Free,,,,,,,,,,false,,,,,,,,LD,false
ELEC,HAMPTON INN WEST BACK,11505 NE 2nd Pl,,Bellevue,WA,98004,,888-758-4389,T,2023-10-08,TEMPORARILY UNAVAILABLE (Public),24 hours daily,,,,,,2,,,ChargePoint Network,http://www.chargepoint.com/,GPS,47.611711,-122.187292,2023-11-10,66594,2023-11-10 00:09:11 UTC,,,,2015-04-02,,,,,J1772,US,,,,TEMPORAIREMENT SUSPENDU (Public),,public,,,,,,,,,,,,,,,,,,,,,,,,,,,,,false
ELEC,SIA W GARAGE F.1 #1,9000 W Airport Dr,,Spokane,WA,99224,,888-758-4389,E,,Public,24 hours daily,,,,,,2,,,ChargePoint Network,http://www.chargepoint.com/,GPS,47.625092,-117.53956,2023-11-10,66622,2023-11-10 00:09:17 UTC,,,,2015-04-07,,,,,J1772,US,,,,Public,,public,,,,,,,,,,,,,,,,,,,,,,,,,,,,,false
ELEC,MAIN HOSPITAL SILVER #2,12001-12099 NE 130th Ln,,Kirkland,WA,98034,,888-758-4389,T,2023-11-05,TEMPORARILY UNAVAILABLE (Public),24 hours daily,,,,,,2,,,ChargePoint Network,http://www.chargepoint.com/,GPS,47.716066,-122.179613,2023-11-10,66645,2023-11-10 00:08:25 UTC,,,,2015-04-09,,,,,J1772,US,,,,TEMPORAIREMENT SUSPENDU (Public),,public,,,,,,,,,,,,,,,,,,,,,,,,,,,,,false
ELEC,WINSLOW WAY WINSLOW #1,232-240 Winslow Way E,,Bainbridge Island,WA,98110,,888-758-4389,E,,Public,24 hours daily,,,,,,2,,,ChargePoint Network,http://www.chargepoint.com/,GPS,47.624921,-122.51934,2023-11-10,66696,2023-11-10 00:08:19 UTC,,,,2015-04-11,,,,,J1772,US,,,,Public,,public,,,,,,,,,,,,,,,,,,,,,,,,,,,,,false
ELEC,The Co-op Farm and Garden,216 E Washington St,,Sequim,WA,98382,,360-683-4111,E,,Public,"8am-6pm M-F, 9am-5pm Sat, 10am-4pm Sun",,,,,,1,,,Non-Networked,,200-9,48.079897,-123.098996,2023-06-12,67125,2023-06-12 16:56:16 UTC,P,,,2015-01-01,,,,,J1772,US,,,,Public,,public,,,COOP,,,,,,,Free,,,,,,,,,,false,,,,,,,,HD,false
ELEC,VISITOR GARAGE PEDESTAL UNIT,1201 Pacific Ave,,Tacoma,WA,98402,,888-758-4389,E,,Public,24 hours daily,,,,,,1,,,ChargePoint Network,http://www.chargepoint.com/,GPS,47.252117,-122.437452,2023-11-10,67692,2023-11-10 00:09:36 UTC,,,,2015-06-06,,,,,J1772,US,,,,Public,,public,,,,,,,,,,,,,,,,,,,,,,,,,,,,,false
ELEC,Banks Lake Brew and Bistro,695 N 2nd St,,Coulee City,WA,99115,,509-632-5510,E,,Public,24 hours daily,,,,,,1,,,Non-Networked,,GPS,47.616684,-119.287843,2021-12-09,68846,2022-02-10 19:42:29 UTC,P,,,2015-08-03,,,,,J1772,US,,,,Public,,public,,,RESTAURANT,,,,,,,Free,,,,,,,,,,false,,,,,,,,LD,false
ELEC,VM CHARGERS VIRGINIA MASON2,1012 Terry Ave,,Seattle,WA,98101,,888-758-4389,E,,Public,24 hours daily,,,,,,1,,,ChargePoint Network,http://www.chargepoint.com/,GPS,47.609528,-122.326393,2023-11-10,68940,2023-11-10 00:09:43 UTC,,,,2015-08-11,,,,,J1772,US,,,,Public,,public,,,,,,,,,,,,,,,,,,,,,,,,,,,,,false
ELEC,CHARGEPOINT T&C BAINBRIDGE,343 Winslow Way E,,Bainbridge Island,WA,98110,,888-758-4389,E,,Public,24 hours daily,,,,,,2,,,ChargePoint Network,http://www.chargepoint.com/,GPS,47.62419,-122.517509,2023-11-10,69209,2023-11-10 00:07:46 UTC,,,,2015-08-27,,,,,J1772,US,,,,Public,,public,,,,,,,,,,,,,,,,,,,,,,,,,,,,,false
ELEC,INSIGNIA 953 EV216,588 Bell St,,Seattle,WA,98121,,888-758-4389,E,,Public,24 hours daily,,,,,,1,,,ChargePoint Network,http://www.chargepoint.com/,GPS,47.616571,-122.342673,2023-11-10,69853,2023-11-10 00:10:41 UTC,,,,2015-09-12,,,,,J1772,US,,,,Public,,public,,,,,,,,,,,,,,,,,,,,,,,,,,,,,false
ELEC,UWB CASCADIA CC TRULY HOUSE #1,18140 Campus Way NE,,Bothell,WA,98011,,888-758-4389,E,,Public,24 hours daily,,,,,,2,,,ChargePoint Network,http://www.chargepoint.com/,GPS,47.759501,-122.193075,2023-11-10,70092,2023-11-10 00:11:09 UTC,,,,2015-09-29,,,,,J1772,US,,,,Public,,public,,,,,,,,,,,,,,,,,,,,,,,,,,,,,false
ELEC,UWB CASCADIA CC SOUTH L 3 N,11237-11299 NE 180th St,,Bothell,WA,98011,,888-758-4389,E,,Public,24 hours daily,,,,,,2,,,ChargePoint Network,http://www.chargepoint.com/,GPS,47.757842,-122.190719,2023-11-10,70095,2023-11-10 00:09:44 UTC,,,,2015-09-29,,,,,J1772,US,,,,Public,,public,,,,,,,,,,,,,,,,,,,,,,,,,,,,,false
ELEC,Best Western Plus - Evergreen Inn and Suites,32124 25th Ave S,,Federal Way,WA,98003,,253-529-4000,E,,Public,24 hours daily; for guest use only; see front desk for access,,,,,,1,,,Non-Networked,,GPS,47.313989,-122.300707,2022-06-14,71773,2023-02-14 15:54:11 UTC,P,,,2019-06-28,,,,,J1772,US,,,,Public,,public,,,HOTEL,,,,,,,Free,,,,,,,,,,true,,,,,,,,LD,false
ELEC,Best Western Plus - Tacoma Dome Hotel,2611 East E St,Lot B,Tacoma,WA,98421,,253-272-7737,E,,Public - Card key after hours,24 hours daily; for guest use only; see front desk for access,,,,,,2,,,Non-Networked,,GPS,47.238785,-122.426722,2022-01-10,71774,2022-02-10 19:42:29 UTC,P,,,2015-12-01,,,,,J1772,US,,,,Public - Carte-clé après les heures d'ouverture,,public,KEY_AFTER_HOURS,,HOTEL,,,,,,,Free,,,,,,,,,,true,,,,,,,,LD,false
ELEC,ESSEX SAMMAMISH VIEW,16160 SE Eastgate Way,,Bellevue,WA,98008,,888-758-4389,E,,Public,24 hours daily,,,,,,2,,,ChargePoint Network,http://www.chargepoint.com/,GPS,47.577051,-122.125164,2023-11-10,71918,2023-11-10 00:10:48 UTC,,,,2015-12-18,,,,,J1772,US,,,,Public,,public,,,,,,,,,,,,,,,,,,,,,,,,,,,,,false
ELEC,MADISON GARAGE MADISON GARAGE2,1229 Madison St,,Seattle,WA,98104,,888-758-4389,E,,Public,24 hours daily,,,,,,2,,,ChargePoint Network,http://www.chargepoint.com/,GPS,47.610087,-122.322114,2023-11-10,72656,2023-11-10 00:10:28 UTC,,,,2016-01-23,,,,,J1772,US,,,,Public,,public,,,,,,,,,,,,,,,,,,,,,,,,,,,,,false
ELEC,Expo Apartments,118 Republican St,,Seattle,WA,98109,,206-751-1356,E,,Public,24 hours daily; apartment residents only,,,,,,1,,,Non-Networked,,GPS,47.6232795,-122.354922,2023-09-14,72739,2023-09-14 14:01:49 UTC,P,,,2016-01-25,,,,,J1772,US,,,,Public,,public,,,MULTI_UNIT_DWELLING,,,,,,,Free,,,,,,,,,,true,,,,,,,,LD,false
ELEC,KING COUNTY DES BURIEN P&R #5,14900 4th Ave SW,,Burien,WA,98166,,888-758-4389,T,2022-09-09,TEMPORARILY UNAVAILABLE (Public),24 hours daily,,,,,,1,,,ChargePoint Network,http://www.chargepoint.com/,GPS,47.469258,-122.338762,2023-11-10,73197,2023-11-10 00:11:00 UTC,,,,2016-01-28,,,,,J1772,US,,,,TEMPORAIREMENT SUSPENDU (Public),,public,,,,,,,,,,,,,,,,,,,,,,,,,,,,,false
ELEC,SIA CELL LOT,8909 W Airport Dr,,Spokane,WA,99224,,888-758-4389,E,,Public,24 hours daily,,,,,,2,,,ChargePoint Network,http://www.chargepoint.com/,GPS,47.630989,-117.540534,2023-11-10,73219,2023-11-10 00:10:48 UTC,,,,2016-01-29,,,,,J1772,US,,,,Public,,public,,,,,,,,,,,,,,,,,,,,,,,,,,,,,false
ELEC,Tumwater - Shell Station & Deli Mart,6131 Capital Blvd SW,,Tumwater,WA,98501,,888-833-2148,E,,Public,24 hours daily,,,,,,1,1,,EVCS,https://evcs.com,200-8,46.99366,-122.90824,2023-05-30,73412,2023-06-08 20:42:22 UTC,,,,2016-02-09,,,,,CHADEMO J1772,US,,,,Public,,public,,,,,,,,,,"Level 2: $4 per session or $19.99 for monthly plan, DC Fast: $7.50 per session or $19.99 for monthly plan",,,,,,,,,,,,,,,,,,,false
ELEC,Leavenworth - City Hall,700 US Hwy 2,,Leavenworth,WA,98826,,888-833-2148,E,,Public,24 hours daily,,,,,,1,1,,EVCS,https://evcs.com,200-8,47.59519,-120.66404,2023-05-30,73413,2023-06-08 20:42:22 UTC,,,,2016-02-09,,,,,CHADEMO J1772,US,,,,Public,,public,,,,,,,,,,"DC Fast: $7.50 per session or $19.99 for monthly plan, Level 2: $4 per session or $19.99 for monthly plan",,,,,,,,,,,,,,,,,,,false
ELEC,Sultan - Sultan Visitor Information Center,320 Main St,,Sultan,WA,98294,,888-833-2148,E,,Public,24 hours daily,,,,,,1,1,,EVCS,https://evcs.com,200-8,47.86215,-121.81659,2023-05-30,73415,2023-06-08 20:42:22 UTC,,,,2016-02-09,,,,,CHADEMO J1772,US,,,,Public,,public,,,,,,,,,,"Level 2: $4 per session or $19.99 for monthly plan, DC Fast: $7.50 per session or $19.99 for monthly plan",,,,,,,,,,,,,,,,,,,false
ELEC,Cle Elum,3600 Suncadia Trail,,Cle Elum,WA,98922,,888-833-2148,E,,Public,24 hours daily,,,,,,1,1,,EVCS,https://evcs.com,200-8,47.2086,-121.0198,2023-05-30,73431,2023-06-08 20:42:22 UTC,,,,2016-02-09,,,,,CHADEMO J1772,US,,,,Public,,public,,,,,,,,,,"Level 2: $4 per session or $19.99 for monthly plan, DC Fast: $7.50 per session or $19.99 for monthly plan",,,,,,,,,,,,,,,,,,,false
ELEC,Snoqualmie - Snoqualmie Pass Chevron,519 SR 906,,Snoqualmie Pass,WA,98068,,888-833-2148,E,,Public,24 hours daily,,,,,,1,1,,EVCS,https://evcs.com,200-8,47.42253,-121.41252,2023-05-30,73433,2023-06-08 20:42:22 UTC,,,,2016-02-09,,,,,CHADEMO J1772,US,,,,Public,,public,,,,,,,,,,"DC Fast: $7.50 per session or $19.99 for monthly plan, Level 2: $4 per session or $19.99 for monthly plan",,,,,,,,,,,,,,,,,,,false
ELEC,Kia of Everett,229 SW Everett Mall Way,,Everett,WA,98204,,425-609-5600,E,,Public - Call ahead,Dealership business hours,,,,,,,1,,Non-Networked,,GPS,47.906308,-122.237601,2022-09-14,74196,2023-02-14 15:54:11 UTC,P,,,2016-01-01,,,,,CHADEMO J1772COMBO,US,,,,Public - Appeler à l'avance,,public,CALL,,CAR_DEALER,,,,,,,,,,,,,,,,,false,,,,,,,,LD,false
ELEC,Bedrooms & More,300 NE 45th St,,Seattle,WA,98105,,206-633-4505,E,,Public,"9am-6pm M-F, 9am-6pm Sat, 10am-6pm Sun; customer use only",,,,,,1,,,Non-Networked,,200-9,47.66159,-122.324877,2023-06-12,74301,2023-06-12 16:56:16 UTC,P,,,2011-10-01,,,,,J1772,US,,,,Public,,public,,,SHOPPING_CENTER,,,,,,,Free,,,,,,,,,,false,,,,,,,,LD,false
ELEC,SAFECO PLAZA SAFECO PLAZA #1,1001 4th Ave Safeco Plaza,,Seattle,WA,98154,,888-758-4389,E,,Public,24 hours daily,,,,,,2,,,ChargePoint Network,http://www.chargepoint.com/,GPS,47.606106,-122.333782,2023-11-10,75391,2023-11-10 00:12:03 UTC,,,,2016-04-26,,,,,J1772,US,,,,Public,,public,,,,,,,,,,,,,,,,,,,,,,,,,,,,,false
ELEC,Lee Johnson Nissan of Kirkland,11930 124th Ave NE,,Kirkland,WA,98034,,425-821-1400,E,,Public,Dealership business hours,,,,,,1,,,Non-Networked,,GPS,47.707294,-122.174855,2022-07-12,75997,2023-02-14 15:54:11 UTC,P,,,2016-05-01,,,,,J1772,US,,,,Public,,public,,,CAR_DEALER,,,,,,,Free,,,,,,,,,,false,,,,,,,,LD,false
ELEC,MI SCHOOLS NORTHWOOD #1,4030 86th Ave SE,,Mercer Island,WA,98040,,888-758-4389,E,,Public,24 hours daily,,,,,,2,,,ChargePoint Network,http://www.chargepoint.com/,GPS,47.573641,-122.223648,2023-11-10,76839,2023-11-10 00:12:34 UTC,,,,2016-07-01,,,,,J1772,US,,,,Public,,public,,,,,,,,,,,,,,,,,,,,,,,,,,,,,false
ELEC,TRANS SERVICES TERRELL,Terrell Parking Garage Cougar Way,,Pullman,WA,99163,,888-758-4389,E,,Public,24 hours daily,,,,,,2,,,ChargePoint Network,http://www.chargepoint.com/,GPS,46.732394,-117.164374,2023-11-10,76857,2023-11-10 00:12:42 UTC,,,,2016-07-02,,,,,J1772,US,,,,Public,,public,,,,,,,,,,,,,,,,,,,,,,,,,,,,,false
ELEC,TRANS SERVICES SCUE,Smith Center Parking Garage Stadium Way,,Pullman,WA,99163,,888-758-4389,E,,Public,24 hours daily,,,,,,2,,,ChargePoint Network,http://www.chargepoint.com/,GPS,46.729675,-117.161393,2023-11-10,76858,2023-11-10 00:12:38 UTC,,,,2016-07-02,,,,,J1772,US,,,,Public,,public,,,,,,,,,,,,,,,,,,,,,,,,,,,,,false
ELEC,WASHINGTON ST LACONNER #1,100 Washington Ave,,La Conner,WA,98257,,888-758-4389,E,,Public,24 hours daily,,,,,,2,,,ChargePoint Network,http://www.chargepoint.com/,GPS,48.391109,-122.496837,2023-11-10,76993,2023-11-10 00:13:01 UTC,,,,2016-07-16,,,,,J1772,US,,,,Public,,public,,,,,,,,,,,,,,,,,,,,,,,,,,,,,false
ELEC,TwispWorks,503 S Glover St,,Twisp,WA,98856,,509-997-3300,E,,Public,24 hours daily,,,,,,1,,,Non-Networked,,200-8,48.362102,-120.121376,2021-12-09,77771,2022-02-10 19:42:29 UTC,P,,,2016-08-05,,,,,J1772,US,,,,Public,,public,,,OFFICE_BLDG,,,,,,,Free,,,,,,,,,,false,,,,,,,,LD,false
ELEC,Wellspring Spa at Mount Rainier,54922 Kernahan Rd E,Located in the parking area of Kernahan Rd,Ashford,WA,98304,,360-569-2285,E,,Public,24 hours daily; for guest use only; Drivers must bring their own J1772 cordset for Level 1 charging,,,,,4,,,,Non-Networked,,GPS,46.759919,-121.981984,2023-08-10,77990,2023-08-10 16:58:49 UTC,P,,,2016-08-14,,,,,NEMA1450,US,,,,Public,,public,,,HOTEL,,,,,,,Free,,,,,,,,,,true,,,,,,,,LD,false
ELEC,PSS CHARGEPOINT PSS #2 NORTH,801 Rainier Ave S,,Seattle,WA,98144,,888-758-4389,T,2023-06-01,TEMPORARILY UNAVAILABLE (Public),24 hours daily,,,,,,2,,,ChargePoint Network,http://www.chargepoint.com/,GPS,47.595546,-122.31163,2023-11-10,78230,2023-11-10 00:13:02 UTC,,,,2016-09-01,,,,,J1772,US,,,,TEMPORAIREMENT SUSPENDU (Public),,public,,,,,,,,,,,,,,,,,,,,,,,,,,,,,false
ELEC,PSS CHARGEPOINT PSS #1,807 Rainier Ave S,,Seattle,WA,98144,,888-758-4389,T,2023-06-13,TEMPORARILY UNAVAILABLE (Public),24 hours daily,,,,,,2,,,ChargePoint Network,http://www.chargepoint.com/,GPS,47.595392,-122.311507,2023-11-10,78231,2023-11-10 00:13:00 UTC,,,,2016-09-01,,,,,J1772,US,,,,TEMPORAIREMENT SUSPENDU (Public),,public,,,,,,,,,,,,,,,,,,,,,,,,,,,,,false
ELEC,PUBLIC CHARGING ANGLE LAKE #2,2702 S 200th St,,SeaTac,WA,98188,,888-758-4389,E,,Public,24 hours daily,,,,,,1,,,ChargePoint Network,http://www.chargepoint.com/,GPS,47.423319,-122.298723,2023-11-10,78570,2023-11-10 00:10:44 UTC,,,,2016-09-22,,,,,J1772,US,,,,Public,,public,,,,,,,,,,,,,,,,,,,,,,,,,,,,,false
ELEC,PUBLIC CHARGING ANGLE LAKE #4,2702 S 200th St,,SeaTac,WA,98198,,888-758-4389,E,,Public,24 hours daily,,,,,,1,,,ChargePoint Network,http://www.chargepoint.com/,GPS,47.42327,-122.298719,2023-11-10,78571,2023-11-10 00:10:44 UTC,,,,2016-09-22,,,,,J1772,US,,,,Public,,public,,,,,,,,,,,,,,,,,,,,,,,,,,,,,false
ELEC,Town of Concrete - Park and Ride,7503 N Superior,State Route 20/N Superior Ave,Concrete,WA,98237,,360-853-8401,E,,Public,24 hours daily,,,,,,2,,,Non-Networked,,GPS,48.537035,-121.758653,2023-08-10,78783,2023-08-10 16:58:49 UTC,LG,,,2016-11-01,,,,,J1772,US,,,,Public,,public,,,PARKING_LOT,,,,,,,Free,,,,,,,,,,false,,,,,,,,LD,false
ELEC,Chelan County Public Utility District,327 N Wenatchee Ave,,Wenatchee,WA,98801,,509-661-4460,E,,Public,24 hours daily,,,,,,2,,,Non-Networked,,GPS,47.429582,-120.315228,2022-06-14,79230,2023-02-14 15:54:11 UTC,LG,,,2016-10-03,,,,,J1772,US,,,,Public,,public,,,UTILITY,,,,,,,Free,,,,,,,,,HYDRO,false,,,,,,,,LD,false
ELEC,Walla Walla Park,River Park Ave E,,Wenatchee,WA,98801,,509-661-4460,E,,Public,6am-10pm daily,,,,,,1,,,Non-Networked,,GPS,47.442921,-120.316235,2022-06-14,79414,2023-02-14 15:54:11 UTC,LG,,,2016-10-28,,,,,J1772,US,,,,Public,,public,,,PARK,,,,,,,Free,,,,,,,,,HYDRO,false,,,,,,,,LD,false
ELEC,DUAL EV SOUTH 1,2616 NE 46th St,,Seattle,WA,98105,,888-758-4389,E,,Public,24 hours daily,,,,,,2,,,ChargePoint Network,http://www.chargepoint.com/,GPS,47.661471,-122.299298,2023-11-10,79670,2023-11-10 00:14:54 UTC,,,,2016-11-10,,,,,J1772,US,,,,Public,,public,,,,,,,,,,,,,,,,,,,,,,,,,,,,,false
ELEC,KING COUNTY DES KSC STATION #5,253-295 S Jackson St,,Seattle,WA,98104,,888-758-4389,E,,Public,24 hours daily,,,,,,1,,,ChargePoint Network,http://www.chargepoint.com/,GPS,47.599,-122.330804,2023-11-10,79748,2023-11-10 00:13:51 UTC,,,,2016-11-16,,,,,J1772,US,,,,Public,,public,,,,,,,,,,,,,,,,,,,,,,,,,,,,,false
ELEC,KING COUNTY DES BURIEN P&R #8,14901 4th Ave SW,,Burien,WA,98166,,888-758-4389,T,2022-09-09,TEMPORARILY UNAVAILABLE (Public),24 hours daily,,,,,,1,,,ChargePoint Network,http://www.chargepoint.com/,GPS,47.469303,-122.338464,2023-11-10,79752,2023-11-10 00:11:00 UTC,,,,2016-11-16,,,,,J1772,US,,,,TEMPORAIREMENT SUSPENDU (Public),,public,,,,,,,,,,,,,,,,,,,,,,,,,,,,,false
ELEC,RSS-1 RSS #1,485 Rainier Blvd N,,Issaquah,WA,98027,,888-758-4389,E,,Public,24 hours daily,,,,,,2,,,ChargePoint Network,http://www.chargepoint.com/,GPS,47.534915,-122.037552,2023-11-10,79902,2023-11-10 00:14:11 UTC,,,,2016-11-19,,,,,J1772,US,,,,Public,,public,,,,,,,,,,,,,,,,,,,,,,,,,,,,,false
ELEC,RPNW PSP-COBB #2,1325 4th Ave,,Seattle,WA,98101,,888-758-4389,T,2022-09-09,TEMPORARILY UNAVAILABLE (Public),24 hours daily,,,,,,2,,,ChargePoint Network,http://www.chargepoint.com/,GPS,47.60872,-122.336023,2023-11-10,79957,2023-11-10 00:14:26 UTC,,,,2016-11-23,,,,,J1772,US,,,,TEMPORAIREMENT SUSPENDU (Public),,public,,,,,,,,,,,,,,,,,,,,,,,,,,,,,false
ELEC,GARAGE COMMERCIAL ST 2,1300 Commercial St,,Bellingham,WA,98225,,888-758-4389,E,,Public,24 hours daily,,,,,,2,,,ChargePoint Network,http://www.chargepoint.com/,GPS,48.750857,-122.479518,2023-11-10,80022,2023-11-10 00:12:22 UTC,,,,2016-12-01,,,,,J1772,US,,,,Public,,public,,,,,,,,,,,,,,,,,,,,,,,,,,,,,false
ELEC,TRANS SERVICES PACCAR,2000 Grimes Way,,Pullman,WA,99164,,888-758-4389,E,,Public,24 hours daily,,,,,,2,,,ChargePoint Network,http://www.chargepoint.com/,GPS,46.729734,-117.156333,2023-11-10,80116,2023-11-10 00:13:49 UTC,,,,2016-12-09,,,,,J1772,US,,,,Public,,public,,,,,,,,,,,,,,,,,,,,,,,,,,,,,false
ELEC,LINC SQUARE EXP LSE P2 #2,432-492 Bellevue Way NE,,Bellevue,WA,98004,,888-758-4389,E,,Public,24 hours daily,,,,,,2,,,ChargePoint Network,http://www.chargepoint.com/,GPS,47.614294,-122.201255,2023-11-10,81023,2023-11-10 00:12:24 UTC,,,,2017-01-27,,,,,J1772,US,,,,Public,,public,,,,,,,,,,,,,,,,,,,,,,,,,,,,,false
ELEC,LINC SQUARE EXP P5 1,410 Bellevue Way NE,,Bellevue,WA,98004,,888-758-4389,E,,Public,24 hours daily,,,,,,2,,,ChargePoint Network,http://www.chargepoint.com/,GPS,47.614098,-122.200729,2023-11-10,81024,2023-11-10 00:19:49 UTC,,,,2017-01-27,,,,,J1772,US,,,,Public,,public,,,,,,,,,,,,,,,,,,,,,,,,,,,,,false
ELEC,Skagit General Store,500 Newhalem St,"Located behind store, east of Highway 20",Rockport,WA,98283,,206-386-4489  206-684-3000,E,,Public,24 hours daily,,,,,,1,,,Non-Networked,,GPS,48.6735,-121.244711,2021-12-09,81080,2022-02-10 19:42:29 UTC,T,,,2019-10-26,,,,,J1772,US,,,,Public,,public,,,SHOPPING_CENTER,,,,,,,Free,,,,,,,,,,false,,,,,,,,HD,true
ELEC,Leavenworth Fish Hatchery,12790 Fish Hatchery Rd,,Leavenworth,WA,98826,,,E,,Public,24 hours daily,,,,,,1,,,Non-Networked,,GPS,47.558592,-120.675803,2021-02-22,81081,2021-03-11 23:22:17 UTC,FG,16,Department of the Interior,2016-08-01,,,,,J1772,US,,,,Public,,public,,DOI,FED_GOV,,,,,,,Free,,,,,,,,,HYDRO,false,,,,,,,,,false
ELEC,Lincoln County Museum,600 7th St,Located one block south of Highway 2,Davenport,WA,99122,,509-725-6711,E,,Public,24 hours daily,,,,,,1,,,Non-Networked,,GPS,47.652922,-118.150361,2021-12-09,81083,2022-02-10 19:42:29 UTC,LG,,,2016-10-01,,,,,J1772,US,,,,Public,,public,,,MUSEUM,,,,,,,Free,,,,,,,,,,false,,,,,,,,HD,false
ELEC,MERCER ISLAND CITY HALL #1,9611 SE 36th St City Hall,,Mercer Island,WA,98040,,888-758-4389,E,,Public,24 hours daily,,,,,,2,,,ChargePoint Network,http://www.chargepoint.com/,GPS,47.577257,-122.209818,2023-11-10,81587,2023-11-10 00:25:46 UTC,,,,2017-02-28,,,,,J1772,US,,,,Public,,public,,,,,,,,,,,,,,,,,,,,,,,,,,,,,false
ELEC,Kitsap Transit-George’s Corner Park & Ride,27618 Hansville Rd. NE,,Kingston,WA,98346,,855-885-9571,E,,Public,,,,,,,4,,,OpConnect,http://www.opconnect.com/,GPS,47.812524,-122.540217,2023-11-10,81779,2023-11-10 01:17:34 UTC,,,,2017-02-01,,,,,J1772,US,,,,Public,,public,,,,,,,,,,,,,,,,,,,,,,,,,,,,,false
ELEC,Kitsap Transit - Harper Church,10384 SE Sedgwick Rd.,,Port Orchard,WA,98366,,855-885-9571,E,,Public,,,,,,,2,,,OpConnect,http://www.opconnect.com/,GPS,47.504444,-122.516388,2023-11-10,81780,2023-11-10 01:17:34 UTC,,,,2017-02-01,,,,,J1772,US,,,,Public,,public,,,,,,,,,,,,,,,,,,,,,,,,,,,,,false
ELEC,SAMMAMISH SAMM VILLAGE #1,301 - 228th Avenue SE,,Sammamish,WA,98074,,888-758-4389,E,,Public,24 hours daily,,,,,,2,,,ChargePoint Network,http://www.chargepoint.com/,GPS,47.605953,-122.037391,2023-11-10,82271,2023-11-10 00:14:11 UTC,,,,2017-04-12,,,,,J1772,US,,,,Public,,public,,,,,,,,,,,,,,,,,,,,,,,,,,,,,false
ELEC,THE SUMMIT THE SUMMIT - P2,10885 NE 4th St,,Bellevue,WA,98004,,888-758-4389,E,,Public,24 hours daily,,,,,,2,,,ChargePoint Network,http://www.chargepoint.com/,GPS,47.613367,-122.194775,2023-11-10,82346,2023-11-10 00:15:34 UTC,,,,2017-04-20,,,,,J1772,US,,,,Public,,public,,,,,,,,,,,,,,,,,,,,,,,,,,,,,false
ELEC,City of Bridgeport - City Hall,1206 Columbia Ave,,Bridgeport,WA,98813,,509-686-4041,E,,Public,24 hours daily,,,,,,1,,,Non-Networked,,GPS,48.009356,-119.672953,2021-12-09,82396,2022-02-10 19:42:29 UTC,LG,,,2017-04-01,,,,,J1772,US,,,,Public,,public,,,MUNI_GOV,,,,,,,Free,,,,,,,,,HYDRO,false,,,,,,,,LD,false
ELEC,City of Tonasket - City Hall,209 N Whitcomb,Located behind City Hall,Tonasket,WA,98855,,509-486-2132,E,,Public,24 hours daily,,,,,,1,,,Non-Networked,,GPS,48.705586,-119.438406,2021-12-09,82397,2022-02-10 19:42:29 UTC,LG,,,2017-04-01,,,,,J1772,US,,,,Public,,public,,,MUNI_GOV,,,,,,,Free,,,,,,,,,HYDRO,false,,,,,,,,MD,false
ELEC,ESSEX BELLCENTERE 01,10822 NE 2nd Pl,,Bellevue,WA,98004,,888-758-4389,E,,Public,24 hours daily,,,,,,2,,,ChargePoint Network,http://www.chargepoint.com/,GPS,47.612468,-122.194308,2023-11-10,82499,2023-11-10 00:15:37 UTC,,,,2017-05-05,,,,,J1772,US,,,,Public,,public,,,,,,,,,,,,,,,,,,,,,,,,,,,,,false
ELEC,SAMMAMISH SAM VILLAGE #2,22612 SE 4th St,,Sammamish,WA,98074,,888-758-4389,E,,Public,24 hours daily,,,,,,2,,,ChargePoint Network,http://www.chargepoint.com/,GPS,47.606215,-122.037426,2023-11-10,82585,2023-11-10 00:14:11 UTC,,,,2017-05-13,,,,,J1772,US,,,,Public,,public,,,,,,,,,,,,,,,,,,,,,,,,,,,,,false
ELEC,Confluence Technology Center,285 Technology Center Way,,Wenatchee,WA,98801,,509-661-4460,E,,Public,24 hours daily,,,,,,1,,,Non-Networked,,GPS,47.463409,-120.331529,2022-06-14,82593,2023-02-14 15:54:11 UTC,LG,,,2017-05-15,,,,,J1772,US,,,,Public,,public,,,OFFICE_BLDG,,,,,,,Free,,,,,,,,,HYDRO,false,,,,,,,,LD,false
ELEC,Rocky Reach Dam Visitor Center,6151 US 97 Alternate,,Wenatchee,WA,98801,,509-661-4460,E,,Public,9am-4pm daily (spring/fall); 9am-9pm daily (summer); closed winter,,,,,,1,,,Non-Networked,,GPS,47.531819,-120.300871,2022-06-14,82594,2023-02-14 15:54:11 UTC,LG,,,2017-05-15,,,,,J1772,US,,,,Public,,public,,,PARK,,,,,,,Free,,,,,,,,,HYDRO,false,,,,,,,,LD,false
ELEC,BELLEVUE DOWNTOWN PARK 2,10201 NE 4th St,,Bellevue,WA,98004,,888-758-4389,E,,Public,24 hours daily,,,,,,2,,,ChargePoint Network,http://www.chargepoint.com/,GPS,47.61309,-122.206569,2023-11-10,85540,2023-11-10 00:15:49 UTC,,,,2017-06-14,,,,,J1772,US,,,,Public,,public,,,,,,,,,,,,,,,,,,,,,,,,,,,,,false
ELEC,SKAGIT STATION SS1,105 E Kincaid St,,Mount Vernon,WA,98273,,888-758-4389,E,,Public,24 hours daily,,,,,,2,,,ChargePoint Network,http://www.chargepoint.com/,GPS,48.418198,-122.334391,2023-11-10,85568,2023-11-10 00:16:55 UTC,,,,2017-06-17,,,,,J1772,US,,,,Public,,public,,,,,,,,,,,,,,,,,,,,,,,,,,,,,false
ELEC,GCU STATION 1,1500 W 4th Ave,,spokane,WA,99201,,888-758-4389,T,2022-09-09,TEMPORARILY UNAVAILABLE (Public),24 hours daily,,,,,,1,,,ChargePoint Network,http://www.chargepoint.com/,GPS,47.652783,-117.434917,2023-11-10,85907,2023-11-10 00:12:52 UTC,,,,2017-07-14,,,,,J1772,US,,,,TEMPORAIREMENT SUSPENDU (Public),,public,,,,,,,,,,,,,,,,,,,,,,,,,,,,,false
ELEC,400 DEXTER AVE 400 DEXTER 1,400 Dexter Ave N,,Seattle,WA,98109,,888-758-4389,E,,Public,24 hours daily,,,,,,2,,,ChargePoint Network,http://www.chargepoint.com/,GPS,47.622264,-122.342164,2023-11-10,86014,2023-11-10 00:16:07 UTC,,,,2017-07-22,,,,,J1772,US,,,,Public,,public,,,,,,,,,,,,,,,,,,,,,,,,,,,,,false
ELEC,Bellevue Nissan,14762 SE Eastgate Way,,Bellevue,WA,98007,,855-315-0206,E,,Public - Call ahead,Dealership business hours,,,,,,1,2,,Non-Networked,,200-9,47.580655,-122.143364,2022-03-07,86025,2023-02-14 15:54:11 UTC,P,,,2017-03-01,,,,,CHADEMO J1772,US,,,,Public - Appeler à l'avance,,public,CALL,,CAR_DEALER,,,,,,,Free,,,,,,,,,,false,,,,,,,,LD,false
ELEC,ALOFT ALOFT ELEMENT 2,2752-2836 152nd Ave NE,,Redmond,WA,98052,,888-758-4389,E,,Public,24 hours daily,,,,,,2,,,ChargePoint Network,http://www.chargepoint.com/,GPS,47.635607,-122.137229,2023-11-10,86099,2023-11-10 00:16:28 UTC,,,,2017-07-28,,,,,J1772,US,,,,Public,,public,,,,,,,,,,,,,,,,,,,,,,,,,,,,,false
ELEC,UWB CASCADIA CC SOUTH LEVEL 3 W,South Parking GarageCampus Way NE,,Bothell,WA,98011,,888-758-4389,E,,Public,24 hours daily,,,,,,2,,,ChargePoint Network,http://www.chargepoint.com/,GPS,47.757838,-122.190947,2023-11-10,86225,2023-11-10 00:16:46 UTC,,,,2017-08-03,,,,,J1772,US,,,,Public,,public,,,,,,,,,,,,,,,,,,,,,,,,,,,,,false
ELEC,RPNW IBM #1,1200 5th Ave,,Seattle,WA,98101,,888-758-4389,T,2022-09-09,TEMPORARILY UNAVAILABLE (Public),24 hours daily,,,,,,2,,,ChargePoint Network,http://www.chargepoint.com/,GPS,47.608495,-122.333054,2023-11-10,86298,2023-11-10 00:17:28 UTC,,,,2017-08-11,,,,,J1772,US,,,,TEMPORAIREMENT SUSPENDU (Public),,public,,,,,,,,,,,,,,,,,,,,,,,,,,,,,false
ELEC,E_SOFI SOFI #1,13180 SE Newport Way,,Bellevue,WA,98006,,888-758-4389,E,,Public,24 hours daily,,,,,,2,,,ChargePoint Network,http://www.chargepoint.com/,GPS,47.571386,-122.164808,2023-11-10,86962,2023-11-10 00:13:49 UTC,,,,2017-08-30,,,,,J1772,US,,,,Public,,public,,,,,,,,,,,,,,,,,,,,,,,,,,,,,false
ELEC,BELLEVUE SQUARE BELL SQ NORTH 1,Bellevue Square - North Building104th Ave NE,,Bellevue,WA,98004,,888-758-4389,E,,Public,24 hours daily,,,,,,2,,,ChargePoint Network,http://www.chargepoint.com/,GPS,47.616971,-122.203009,2023-11-10,87711,2023-11-10 00:17:06 UTC,,,,2017-09-21,,,,,J1772,US,,,,Public,,public,,,,,,,,,,,,,,,,,,,,,,,,,,,,,false
ELEC,MERCER ISLAND MI COMMUN CTR,8236 SE 24th MI Community Center,,Mercer Island,WA,98040,,888-758-4389,E,,Public,24 hours daily,,,,,,2,,,ChargePoint Network,http://www.chargepoint.com/,GPS,47.590057,-122.228541,2023-11-10,87937,2023-11-10 00:17:47 UTC,,,,2017-10-07,,,,,J1772,US,,,,Public,,public,,,,,,,,,,,,,,,,,,,,,,,,,,,,,false
ELEC,DC CORRIDOR WALLYPARKDC1,18613 International Blvd,,SeaTac,WA,98188,,888-758-4389,T,2023-03-16,TEMPORARILY UNAVAILABLE (Public),24 hours daily,,,,,,,1,,ChargePoint Network,http://www.chargepoint.com/,GPS,47.436233,-122.296635,2023-11-10,88018,2023-11-10 00:14:13 UTC,,,,2017-10-15,,,,,CHADEMO J1772COMBO,US,,,,TEMPORAIREMENT SUSPENDU (Public),,public,,,,,,,,,,,,,,,,,,,,,,,,,,,,,false
ELEC,COLLEGE HALL PARKING GARAGE,821 E Boone Ave,,Spokane,WA,99202,,888-758-4389,E,,Public,24 hours daily,,,,,,2,,,ChargePoint Network,http://www.chargepoint.com/,GPS,47.668201,-117.397214,2023-11-10,88084,2023-11-10 00:17:17 UTC,,,,2017-10-20,,,,,J1772,US,,,,Public,,public,,,,,,,,,,,,,,,,,,,,,,,,,,,,,false
ELEC,CAR CHARGER #1 SOMA DUAL 1,288 106th Ave NE,,Bellevue,WA,98004,,888-758-4389,E,,Public,24 hours daily,,,,,,2,,,ChargePoint Network,http://www.chargepoint.com/,GPS,47.612754,-122.198497,2023-11-10,88290,2023-11-10 00:17:28 UTC,,,,2017-11-03,,,,,J1772,US,,,,Public,,public,,,,,,,,,,,,,,,,,,,,,,,,,,,,,false
ELEC,PUBLIC WORKS 1 MARITIME PIER,3025 Harborview Dr,,Gig Harbor,WA,98335,,888-758-4389,E,,Public,24 hours daily,,,,,,2,,,ChargePoint Network,http://www.chargepoint.com/,GPS,47.329291,-122.578979,2023-11-10,88546,2023-11-10 00:14:58 UTC,,,,2017-11-21,,,,,J1772,US,,,,Public,,public,,,,,,,,,,,,,,,,,,,,,,,,,,,,,false
ELEC,DUAL EV SOUTH 2,2623 NE University Village St,,Seattle,WA,98105,,888-758-4389,E,,Public,24 hours daily,,,,,,2,,,ChargePoint Network,http://www.chargepoint.com/,GPS,47.661361,-122.298284,2023-11-10,88696,2023-11-10 00:14:26 UTC,,,,2017-12-05,,,,,J1772,US,,,,Public,,public,,,,,,,,,,,,,,,,,,,,,,,,,,,,,false
ELEC,PARK77 PARK77 C,20227 77th Ave NE,,Arlington,WA,98223,,888-758-4389,T,2022-09-09,TEMPORARILY UNAVAILABLE (Public),24 hours daily,,,,,,2,,,ChargePoint Network,http://www.chargepoint.com/,GPS,48.180175,-122.12563,2023-11-10,88777,2023-11-10 00:18:41 UTC,,,,2017-12-12,,,,,J1772,US,,,,TEMPORAIREMENT SUSPENDU (Public),,public,,,,,,,,,,,,,,,,,,,,,,,,,,,,,false
ELEC,PUBLIC WORKS 1 GH FINHOLM 1,8828-8844 N Harborview Dr,,Gig Harbor,WA,98332,,888-758-4389,E,,Public,24 hours daily,,,,,,2,,,ChargePoint Network,http://www.chargepoint.com/,GPS,47.339342,-122.590314,2023-11-10,88827,2023-11-10 00:14:58 UTC,,,,2017-12-14,,,,,J1772,US,,,,Public,,public,,,,,,,,,,,,,,,,,,,,,,,,,,,,,false
ELEC,Jefferson Transit Authority Four Corners Park N Ride,63 Four Corners,,Port Townsend,WA,98368,,855-885-9571,T,2023-09-17,TEMPORARILY UNAVAILABLE (Public),,,,,,,4,,,OpConnect,http://www.opconnect.com/,GPS,48.050029,-122.818654,2023-11-10,92107,2023-11-10 01:17:35 UTC,,,,2018-01-01,,,,,J1772,US,,,,TEMPORAIREMENT SUSPENDU (Public),,public,,,,,,,,,,,,,,,,,,,,,,,,,,,,,false
ELEC,"Kitsap Transit - North Viking Poulsbo Park N Ride, WA",21711 Vetter Rd NW,,Poulsbo,WA,98370,,855-885-9571,E,,Public,,,,,,,4,,,OpConnect,http://www.opconnect.com/,GPS,47.75946,-122.661047,2023-11-10,92108,2023-11-10 01:17:35 UTC,,,,2018-01-01,,,,,J1772,US,,,,Public,,public,,,,,,,,,,,,,,,,,,,,,,,,,,,,,false
ELEC,San Juan Islands Conservation District,530 Guard St,,Friday Harbor,WA,98250,,360-378-6621,E,,Public,24 hours daily,,,,,,1,,,Non-Networked,,GPS,48.536489,-123.021351,2022-01-10,93840,2022-02-10 19:42:29 UTC,LG,,,2015-01-01,,,,,J1772,US,,,,Public,,public,,,OFFICE_BLDG,,,,,,,Free,,,,,,,,,,false,,,,,,,,LD,true
ELEC,Avalon Business Park,322 Daniel Ln,,Friday Harbor,WA,98250,,360-378-2288,E,,Public,8am-5pm daily,,,,,,1,,,Non-Networked,,GPS,48.514655,-123.028884,2023-09-14,93841,2023-09-14 14:01:49 UTC,P,,,2017-01-01,,,,,J1772,US,,,,Public,,public,,,OFFICE_BLDG,,,,,,,Free,,,,,,,,,,false,,,,,,,,LD,false
ELEC,Earthbox Inn and Spa,410 Spring St,,Friday Harbor,WA,98250,,360-378-4000,E,,Public - Call ahead,24 hours daily; guests only,A Cash Checks Debit M,,,,,2,,,Non-Networked,,GPS,48.532963,-123.019311,2023-06-12,93842,2023-06-12 16:56:16 UTC,P,,,2016-01-01,,,,,J1772,US,,,,Public - Appeler à l'avance,,public,CALL,,INN,,,,,,,Free,,,,,,,,,,true,,,,,,,,LD,false
ELEC,Friday Harbor Grand Bed and Breakfast,345 Blair Ave,,Friday Harbor,WA,98250,,360-378-0442,E,,Public - Call ahead,24 hours daily; guest use only,,,,,,1,,,Non-Networked,,GPS,48.532844,-123.021001,2023-01-10,93843,2023-02-14 15:54:11 UTC,P,,,2017-01-01,,,,,J1772,US,,,,Public - Appeler à l'avance,,public,CALL,,INN,,,,,,,Free,,,,,,,,,,true,,,,,,,,LD,false
ELEC,Odd Fellows Hall,112 Haven Rd,,Eastsound,WA,98245,,360-376-5640,E,,Public,24 hours daily,,,,,,1,,,Non-Networked,,GPS,48.692979,-122.904798,2022-09-14,93846,2023-02-14 15:54:11 UTC,P,,,2017-01-01,,,,,J1772,US,,,,Public,,public,,,PARKING_LOT,,,,,,,Free,,,,,,,,,,false,,,,,,,,LD,false
ELEC,Doe Bay Resort,107 Doe Bay Rd,,Olga,WA,98279,,360-376-2291,E,,Public,Business Hours,,,,,,1,,,Non-Networked,,GPS,48.641279,-122.781015,2022-01-10,93848,2022-02-10 19:42:29 UTC,P,,,2016-01-01,,,,,J1772,US,,,,Public,,public,,,HOTEL,,,,,,,Free,,,,,,,,,,false,,,,,,,,LD,false
ELEC,Lopez Island Library,2225 Fisherman Bay Rd,,Lopez,WA,98261,,360-468-2265,E,,Public - Call ahead,24 hours daily,,,,,,1,,,Non-Networked,,GPS,48.521863,-122.909571,2023-08-10,93849,2023-08-10 16:58:49 UTC,P,,,2016-01-01,,,,,J1772,US,,,,Public - Appeler à l'avance,,public,CALL,,LIBRARY,,,,,,,Free,,,,,,,,,,false,,,,,,,,LD,false
ELEC,Lopez Community Land Trust,25 Tuatara Rd,,Lopez,WA,98261,,360-468-3723,E,,Public - Call ahead,"8am-5pm daily; primarily for employee use, call ahead",,,,,,1,,,Non-Networked,,GPS,48.530774,-122.914874,2023-08-10,93850,2023-08-10 16:58:49 UTC,P,,,2016-01-01,,,,,J1772,US,,,,Public - Appeler à l'avance,,public,CALL,,PARKING_LOT,,,,,,,Free,,,,,,,,,,true,,,,,,,,LD,true
ELEC,RPNW FC #1,319 University St,,Seattle,WA,98101,,888-758-4389,T,2022-09-09,TEMPORARILY UNAVAILABLE (Public),24 hours daily,,,,,,2,,,ChargePoint Network,http://www.chargepoint.com/,GPS,47.608017,-122.335273,2023-11-10,94715,2023-11-10 00:17:44 UTC,,,,2018-04-07,,,,,J1772,US,,,,TEMPORAIREMENT SUSPENDU (Public),,public,,,,,,,,,,,,,,,,,,,,,,,,,,,,,false
ELEC,"Hampton Inn & Suites - Woodinville, WA",19211 Woodinville Snohomish Rd,,Woodinville,WA,98072,,866-816-7584,T,2023-07-29,TEMPORARILY UNAVAILABLE (Public),,,,,,,2,,,EV Connect,http://evconnect.com/,GPS,47.766833,-122.15448,2023-11-10,94886,2023-11-10 01:18:33 UTC,,,,2017-10-12,,,,,J1772,US,,,,TEMPORAIREMENT SUSPENDU (Public),,public,,,,,,,,,,,,,,,,,,,,,,,,,,,,,false
ELEC,MasterPark Valet Garage,16826 International Blvd,Please see valet attendant.||,SeaTac,WA,98188,,888-998-2546,E,,Public,24 hours daily,,,,,,4,,,Blink Network,http://www.blinkcharging.com/,GPS,47.451709,-122.295497,2023-11-10,95110,2023-11-10 00:00:51 UTC,,,,2014-05-22,,,,,J1772,US,,,,Public,,public,,,,,,,,,,Free,,,,,,,,,,,,,,,,,,,false
ELEC,Thurston County Juvenile Court,1520 Irving St SW,,Tumwater,WA,98512,,888-998-2546,E,,Public,24 hours daily,,,,,,2,,,Blink Network,http://www.blinkcharging.com/,GPS,47.023179,-122.922337,2023-11-10,95134,2023-11-10 00:04:00 UTC,,,,2017-03-22,,,,,J1772,US,,,,Public,,public,,,,,,,,,,Free,,,,,,,,,,,,,,,,,,,false
ELEC,Port of Poulsbo,19133 Jensen Way NE,,Poulsbo,WA,98370,,888-998-2546,E,,Public,24 hours daily,,,,,,4,,,Blink Network,http://www.blinkcharging.com/,GPS,47.736632,-122.647204,2023-11-09,95259,2023-11-09 23:59:16 UTC,,,,2012-05-31,,,,,J1772,US,,,,Public,,public,,,,,,,,,,Free,,,,,,,,,,,,,,,,,,,false
ELEC,Haselwood Family YMCA Silverdale,3909 NW Randall Way,CHAdeMO and Level 2 located on the ||north side of the main building||,Silverdale,WA,98383,,888-998-2546,E,,Public,24 hours daily,,,,,,2,,,Blink Network,http://www.blinkcharging.com/,GPS,47.652505,-122.694367,2023-11-10,95368,2023-11-10 00:01:53 UTC,,,,2015-09-19,,,,,J1772,US,,,,Public,,public,,,,,,,,,,Free,,,,,,,,,,,,,,,,,,,false
ELEC,Skagit Valley College - Annex,2405 E. College Way,,Mt. Vernon,WA,98273,,888-998-2546,E,,Public,24 hours daily,,,,,,2,,,Blink Network,http://www.blinkcharging.com/,GPS,48.436423,-122.3088327,2023-11-10,95464,2023-11-10 00:00:20 UTC,,,,2016-01-22,,,,,J1772,US,,,,Public,,public,,,,,,,,,,Free,,,,,,,,,,,,,,,,,,,false
ELEC,Bellevue College - Garage,3000 Landerholm Cir SE,.||,Bellevue,WA,98007,,888-998-2546,E,,Public,24 hours daily,,,,,,2,,,Blink Network,http://www.blinkcharging.com/,GPS,47.585655,-122.147284,2023-11-09,95496,2023-11-09 23:59:16 UTC,,,,2015-03-21,,,,,J1772,US,,,,Public,,public,,,,,,,,,,Free,,,,,,,,,,,,,,,,,,,false
ELEC,Legacy Salmon Creek Hospital,2211 Northeast 139th Street,"The main entrance, first level to the right. These are located on level purple cougar section B. Near the main hospital entrance level it is to the right as soon as you pull in",Vancouver,WA,98686,,888-998-2546,E,,Public,24 hours daily,,,,,,2,,,Blink Network,http://www.blinkcharging.com/,GPS,45.7208083,-122.6467578,2023-11-09,95594,2023-11-09 23:58:09 UTC,,,,2012-01-15,,,,,J1772,US,,,,Public,,public,,,,,,,,,,Free,,,,,,,,,,,,,,,,,,,false
ELEC,McLendon Hardware Tacoma,1015 N Pearl St,,Tacoma,WA,98406,,888-998-2546,E,,Public,24 hours daily,,,,,,2,,,Blink Network,http://www.blinkcharging.com/,GPS,47.25914,-122.514596,2023-11-10,95640,2023-11-10 00:00:20 UTC,,,,2016-09-26,,,,,J1772,US,,,,Public,,public,,,,,,,,,,Free,,,,,,,,,,,,,,,,,,,false
ELEC,First Hill Medical Building,515 Minor Ave,Paid Parking Garage||,Seattle,WA,98104,,888-998-2546,E,,Public,24 hours daily,,,,,,1,,,Blink Network,http://www.blinkcharging.com/,GPS,47.60636,-122.321639,2023-11-10,95703,2023-11-10 00:00:20 UTC,,,,2015-07-16,,,,,J1772,US,,,,Public,,public,,,,,,,,,,Free,,,,,,,,,,,,,,,,,,,false
ELEC,McLendon Hardware,440 Rainier Ave South,,Renton,WA,98057,,888-998-2546,E,,Public,24 hours daily,,,,,,2,,,Blink Network,http://www.blinkcharging.com/,GPS,47.477362,-122.215347,2023-11-10,95749,2023-11-10 00:00:50 UTC,,,,2011-12-15,,,,,J1772,US,,,,Public,,public,,,,,,,,,,Free,,,,,,,,,,,,,,,,,,,false
ELEC,Sumner School District - Parking Lot,1099 Wood Ave,Chargers have been powered off for ||construction.||,Sumner,WA,98390,,888-998-2546,E,,Public,24 hours daily,,,,,,3,,,Blink Network,http://www.blinkcharging.com/,GPS,47.203981,-122.237313,2023-11-10,95831,2023-11-10 00:04:00 UTC,,,,2014-09-30,,,,,J1772,US,,,,Public,,public,,,,,,,,,,Free,,,,,,,,,,,,,,,,,,,false
ELEC,Lake Washington Institute of Technology,11605 132nd Ave NE,,Kirkland,WA,98034,,888-998-2546,E,,Public,24 hours daily,,,,,,2,,,Blink Network,http://www.blinkcharging.com/,GPS,47.704069,-122.167006,2023-11-09,95959,2023-11-09 23:59:48 UTC,,,,2013-05-15,,,,,J1772,US,,,,Public,,public,,,,,,,,,,Free,,,,,,,,,,,,,,,,,,,false
ELEC,520 Pike Tower,520 Pike St.,Chargers are on level F,Seattle,WA,98101,,888-998-2546,E,,Public,24 hours daily,,,,,,4,,,Blink Network,http://www.blinkcharging.com/,GPS,47.611102,-122.334893,2023-11-10,96348,2023-11-10 00:00:52 UTC,,,,2017-06-03,,,,,J1772,US,,,,Public,,public,,,,,,,,,,Free,,,,,,,,,,,,,,,,,,,false
ELEC,Bellevue College - Lot C7 Snoqualmie River Road,3036 Snoqualmie River Road,"DCFC under repair. The stations are ||located in Lot C7, at the back (west) ||side of campus.||",Bellevue,WA,98005,,888-998-2546,E,,Public,24 hours daily,,,,,,2,,,Blink Network,http://www.blinkcharging.com/,GPS,47.58495,-122.15043,2023-11-09,96400,2023-11-09 23:59:16 UTC,,,,2017-09-08,,,,,J1772,US,,,,Public,,public,,,,,,,,,,Free,,,,,,,,,,,,,,,,,,,false
ELEC,Lake Union Building,1700 Westlake Ave N,"Chargers on ground level of parking ||garage, south of building on waterfront.||",Seattle,WA,98109,,888-998-2546,E,,Public,24 hours daily,,,,,,2,,,Blink Network,http://www.blinkcharging.com/,GPS,47.633992,-122.339684,2023-11-10,96480,2023-11-10 00:00:20 UTC,,,,2012-06-18,,,,,J1772,US,,,,Public,,public,,,,,,,,,,Free,,,,,,,,,,,,,,,,,,,false
ELEC,Clark County - Public Service Center (1st Floor),1300 Franklin Street,1st Floor by elevators||,Vancouver,WA,98660,,888-998-2546,E,,Public,24 hours daily,,,,,,4,,,Blink Network,http://www.blinkcharging.com/,GPS,45.6313841,-122.677588,2023-11-09,96620,2023-11-09 23:58:10 UTC,,,,2013-02-15,,,,,J1772,US,,,,Public,,public,,,,,,,,,,Free,,,,,,,,,,,,,,,,,,,false
ELEC,DC CORRIDOR SO SEATTLE COL,6000 16th Ave SW,,Seattle,WA,98106,,888-758-4389,T,2023-10-11,TEMPORARILY UNAVAILABLE (Public),24 hours daily,,,,,,,1,,ChargePoint Network,http://www.chargepoint.com/,GPS,47.547708,-122.352708,2023-11-10,96763,2023-11-10 00:14:13 UTC,,,,2018-04-24,,,,,CHADEMO J1772COMBO,US,,,,TEMPORAIREMENT SUSPENDU (Public),,public,,,,,,,,,,,,,,,,,,,,,,,,,,,,,false
ELEC,VM CHARGERS VM BAINBRIDGE 1,1329 Wintergreen Lane Northeast,,Bainbridge Island,WA,98110,,888-758-4389,E,,Public,24 hours daily,,,,,,2,,,ChargePoint Network,http://www.chargepoint.com/,GPS,47.637692,-122.513582,2023-11-10,96877,2023-11-10 00:20:59 UTC,,,,2018-05-02,,,,,J1772,US,,,,Public,,public,,,,,,,,,,,,,,,,,,,,,,,,,,,,,false
ELEC,Multicare Health Systems,17700 SE 272nd Street,,Covington,WA,98042,,888-998-2546,E,,Public,24 hours daily,,,,,,3,,,Blink Network,http://www.blinkcharging.com/,GPS,47.359935,-122.103668,2023-11-10,96971,2023-11-10 00:00:21 UTC,,,,2018-05-10,,,,,J1772,US,,,,Public,,public,,,,,,,,,,Free,,,,,,,,,,,,,,,,,,,false
ELEC,Highline Community College,2400 S 240th St,The campus is closed and chargers ||unavailable from 10pm to 5am. Lot is ||often closed due to Covid.||,Des Moines,WA,98198,,888-998-2546,E,,Public,24 hours daily,,,,,,6,,,Blink Network,http://www.blinkcharging.com/,GPS,47.389529,-122.301609,2023-11-10,96972,2023-11-10 00:03:59 UTC,,,,2018-05-10,,,,,J1772,US,,,,Public,,public,,,,,,,,,,Free,,,,,,,,,,,,,,,,,,,false
ELEC,BARKLEY VILLAGE REGAL CINEMA 2,3011 Cinema Pl,,Bellingham,WA,98226,,888-758-4389,E,,Public,24 hours daily,,,,,,2,,,ChargePoint Network,http://www.chargepoint.com/,GPS,48.7707,-122.448772,2023-11-10,97018,2023-11-10 00:21:17 UTC,,,,2018-05-11,,,,,J1772,US,,,,Public,,public,,,,,,,,,,,,,,,,,,,,,,,,,,,,,false
ELEC,Camaray Motel,1320 Main St,,Oroville,WA,98844,,509-476-3684,E,,Public,24 hours daily,,,,,,1,,,Non-Networked,,GPS,48.938283,-119.436456,2021-12-09,98553,2022-02-10 19:42:29 UTC,P,,,2017-07-01,,,,,J1772,US,,,,Public,,public,,,HOTEL,,,,,,,Free,,,,,,,,,,false,,,,,,,,LD,false
ELEC,Smokiam Park,334 Daisy St N,,Soap Lake,WA,98851,,509-246-1211,E,,Public,24 hours daily,,,,,,1,,,Non-Networked,,GPS,47.39125,-119.483647,2021-12-09,98554,2022-02-10 19:42:29 UTC,LG,,,2017-08-01,,,,,J1772,US,,,,Public,,public,,,MUNI_GOV,,,,,,,Free,,,,,,,,,,false,,,,,,,,LD,false
ELEC,Mountain View Lodge & Resort,25 Wapato Way,,Manson,WA,98831,,509-687-9505,E,,Public,24 hours daily; for guest use only,,,,,,1,,,Non-Networked,,GPS,47.883847,-120.154608,2021-12-09,98555,2022-02-10 19:42:29 UTC,P,,,2017-10-01,,,,,J1772,US,,,,Public,,public,,,HOTEL,,,,,,,Free,,,,,,,,,,true,,,,,,,,LD,false
ELEC,Seattle-Tacoma International Airport - Terminal Direct Parking,17801 Pacific Hwy S,Floor 4; row I,Seattle,WA,98188,,206-787-5388,E,,Public,24 hours daily; pay lot; Drivers must bring their own J1772 cordset for Level 1 charging,,,,,41,,,,Non-Networked,,200-8,47.443363,-122.296428,2023-08-10,98583,2023-08-10 16:58:49 UTC,P,,,2010-03-01,,,,,NEMA520,US,,,,Public,,public,,,AIRPORT,,,,,,,Free,,,,,,,,,,false,,,,,,,,LD,false
ELEC,SCAFCO,2800 E Main Ave,,Spokane,WA,99020,,866-816-7584,E,,Public,,,,,,,2,,,EV Connect,http://evconnect.com/,GPS,47.659232,-117.368859,2023-11-10,98721,2023-11-10 01:18:59 UTC,,,,2020-04-10,,,,,J1772,US,,,,Public,,public,,,,,,,,,,,,,,,,,,,,,,,,,,,,,false
ELEC,BASKIN ROBBINS B-R #1,3010 Harrison Ave NW,,Olympia,WA,98502,,888-758-4389,T,2023-05-19,TEMPORARILY UNAVAILABLE (Public),24 hours daily,,,,,,2,,,ChargePoint Network,http://www.chargepoint.com/,GPS,47.047492,-122.939544,2023-11-10,98737,2023-11-10 00:21:33 UTC,,,,2018-06-05,,,,,J1772,US,,,,TEMPORAIREMENT SUSPENDU (Public),,public,,,,,,,,,,,,,,,,,,,,,,,,,,,,,false
ELEC,DC CORRIDOR N SEA COLLEGE,9600 College Way N,,Seattle,WA,98103,,888-758-4389,T,2023-10-11,TEMPORARILY UNAVAILABLE (Public),24 hours daily,,,,,,,1,,ChargePoint Network,http://www.chargepoint.com/,GPS,47.699227,-122.334626,2023-11-10,98770,2023-11-10 00:13:50 UTC,,,,2018-06-07,,,,,CHADEMO J1772COMBO,US,,,,TEMPORAIREMENT SUSPENDU (Public),,public,,,,,,,,,,,,,,,,,,,,,,,,,,,,,false
ELEC,LHM HONDA STATION 01,1208 W 3rd Ave,,Spokane,WA,99201,,888-758-4389,E,,Public,24 hours daily,,,,,,2,,,ChargePoint Network,http://www.chargepoint.com/,GPS,47.653614,-117.430179,2023-11-10,98810,2023-11-10 00:21:29 UTC,,,,2018-06-09,,,,,J1772,US,,,,Public,,public,,,,,,,,,,,,,,,,,,,,,,,,,,,,,false
ELEC,Port of Clarkston,849 Port Way,,Clarkston,WA,99403,,855-900-7584,T,2023-11-09,TEMPORARILY UNAVAILABLE (Public),24 hours daily,,,,,,2,,,SHELL_RECHARGE,https://shellrecharge.com/en-us/solutions,200-8,46.425498,-117.04865,2023-11-10,99171,2023-11-10 01:13:19 UTC,,,,2017-05-01,,,,,J1772,US,,,,TEMPORAIREMENT SUSPENDU (Public),,public,,,,,,,,,,,,,,,,,,,,,,,,,,,,,false
ELEC,CITY OF LIBERTY LAKE,22710 E Country Vista Dr,,Liberty Lake,WA,99019,,855-900-7584,E,,Public,24 hours daily,,,,,,2,,,SHELL_RECHARGE,https://shellrecharge.com/en-us/solutions,200-9,47.671569,-117.102884,2023-11-10,99200,2023-11-10 01:13:21 UTC,,,,2018-06-14,,,,,J1772,US,,,,Public,,public,,,,,,,,,,,,,,,,,,,,,,,,,,,,,false
ELEC,Rock Pointe,1330 N. Washington St,,Spokane,WA,99201,,855-900-7584,E,,Public,24 hours daily,,,,,,3,,,SHELL_RECHARGE,https://shellrecharge.com/en-us/solutions,200-9,47.669621,-117.416241,2023-11-10,99230,2023-11-10 01:13:22 UTC,,,,2018-06-14,,,,,J1772,US,,,,Public,,public,,,,,,,,,,,,,,,,,,,,,,,,,,,,,false
ELEC,STCU Valley,13211 E 32nd Ave,,Spokane,WA,99216,,855-900-7584,E,,Public,24 hours daily,,,,,,2,,,SHELL_RECHARGE,https://shellrecharge.com/en-us/solutions,200-8,47.628186,-117.227256,2023-11-10,99262,2023-11-10 01:13:26 UTC,,,,2018-06-14,,,,,J1772,US,,,,Public,,public,,,,,,,,,,,,,,,,,,,,,,,,,,,,,false
ELEC,Kendall Yards,500 N Cedar St,,Spokane,WA,99201,,855-900-7584,E,,Public,24 hours daily,,,,,,2,,,SHELL_RECHARGE,https://shellrecharge.com/en-us/solutions,200-9,47.662679,-117.431811,2023-11-10,99263,2023-11-10 01:13:26 UTC,,,,2017-10-30,,,,,J1772,US,,,,Public,,public,,,,,,,,,,,,,,,,,,,,,,,,,,,,,false
ELEC,805 156th NE Bellevue WA,805 156th NE,,Bellevue,WA,98007,,855-900-7584,E,,Public,24 hours daily,,,,,,2,,,SHELL_RECHARGE,https://shellrecharge.com/en-us/solutions,200-9,47.617634,-122.133439,2023-11-10,99270,2023-11-10 01:13:26 UTC,,,,2018-06-14,,,,,J1772,US,,,,Public,,public,,,,,,,,,,,,,,,,,,,,,,,,,,,,,false
ELEC,AGR Olympia,3939 Cleveland Ave.,,Olympia,WA,98501,,855-900-7584,E,,Public,24 hours daily,,,,,,2,,,SHELL_RECHARGE,https://shellrecharge.com/en-us/solutions,200-9,47.011089,-122.896054,2023-11-10,99273,2023-11-10 01:13:26 UTC,,,,2018-06-14,,,,,J1772,US,,,,Public,,public,,,,,,,,,,,,,,,,,,,,,,,,,,,,,false
ELEC,North Beacon Hill,2535 16th Ave S,,Seattle,WA,98144,,855-900-7584,E,,Public,24 hours daily,,,,,,,2,,SHELL_RECHARGE,https://shellrecharge.com/en-us/solutions,200-8,47.58002,-122.312203,2023-11-10,99282,2023-11-10 01:13:26 UTC,,,,2018-06-14,,,,,CHADEMO J1772COMBO,US,,,,Public,,public,,,,,,,,,,,,,,,,,,,,,,,,,,,,,false
ELEC,LNI Bellevue 120th NE,616 120th Aveneue NE,,Bellevue,WA,98005,,855-900-7584,E,,Public,24 hours daily,,,,,,2,,,SHELL_RECHARGE,https://shellrecharge.com/en-us/solutions,200-9,47.61541,-122.179484,2023-11-10,99293,2023-11-10 01:11:49 UTC,,,,2018-06-14,,,,,J1772,US,,,,Public,,public,,,,,,,,,,,,,,,,,,,,,,,,,,,,,false
ELEC,Kennewick,2901 Southridge Blvd,,Kennewick,WA,99337,,855-900-7584,E,,Public,24 hours daily,,,,,,1,1,,SHELL_RECHARGE,https://shellrecharge.com/en-us/solutions,200-9,46.180363,-119.188501,2023-11-10,99296,2023-11-10 01:11:50 UTC,,,,2018-06-14,,,,,CHADEMO J1772 J1772COMBO,US,,,,Public,,public,,,,,,,,,,,,,,,,,,,,,,,,,,,,,false
ELEC,Ellensburg,269-299 N Main St,,Ellensburg,WA,98926,,855-900-7584,E,,Public,24 hours daily,,,,,,,1,,SHELL_RECHARGE,https://shellrecharge.com/en-us/solutions,200-8,46.994236,-120.549197,2023-11-10,99297,2023-11-10 01:11:50 UTC,,,,2018-06-14,,,,,CHADEMO J1772COMBO,US,,,,Public,,public,,,,,,,,,,,,,,,,,,,,,,,,,,,,,false
ELEC,Spokane Community College,1810 N Greene BLDG 8,,Spokane,WA,99217,,855-900-7584,E,,Public,24 hours daily,,,,,,2,,,SHELL_RECHARGE,https://shellrecharge.com/en-us/solutions,200-9,47.673158,-117.360474,2023-11-10,99298,2023-11-10 01:11:50 UTC,,,,2018-06-14,,,,,J1772,US,,,,Public,,public,,,,,,,,,,,,,,,,,,,,,,,,,,,,,false
ELEC,SFCC,3410 W Fort George Wright Dr,,Spokane,WA,99224,,855-900-7584,E,,Public,24 hours daily,,,,,,4,,,SHELL_RECHARGE,https://shellrecharge.com/en-us/solutions,200-8,47.675247,-117.464446,2023-11-10,99303,2023-11-10 01:11:50 UTC,,,,2018-06-14,,,,,J1772,US,,,,Public,,public,,,,,,,,,,,,,,,,,,,,,,,,,,,,,false
ELEC,UWB CASCADIA CC SOUTH LEVEL 4 S,Campus Way NE,,Bothell,WA,98011,,888-758-4389,E,,Public,24 hours daily,,,,,,2,,,ChargePoint Network,http://www.chargepoint.com/,GPS,47.757824,-122.190681,2023-11-10,99405,2023-11-10 00:19:06 UTC,,,,2018-06-22,,,,,J1772,US,,,,Public,,public,,,,,,,,,,,,,,,,,,,,,,,,,,,,,false
ELEC,LINC SQUARE EXP LSS P2 106-107,440 Bellevue Way NE,,Bellevue,WA,98004,,888-758-4389,E,,Public,24 hours daily,,,,,,2,,,ChargePoint Network,http://www.chargepoint.com/,GPS,47.614503,-122.201196,2023-11-10,99407,2023-11-10 00:17:31 UTC,,,,2018-06-22,,,,,J1772,US,,,,Public,,public,,,,,,,,,,,,,,,,,,,,,,,,,,,,,false
ELEC,LINC SQUARE EXP LSS P2 109-110,424 104th Ave NE,,Bellevue,WA,98004,,888-758-4389,E,,Public,24 hours daily,,,,,,2,,,ChargePoint Network,http://www.chargepoint.com/,GPS,47.614311,-122.201051,2023-11-10,99408,2023-11-10 00:17:31 UTC,,,,2018-06-22,,,,,J1772,US,,,,Public,,public,,,,,,,,,,,,,,,,,,,,,,,,,,,,,false
ELEC,LINC SQUARE EXP LSS P2 100-101,414 104th Ave NE,,Bellevue,WA,98004,,888-758-4389,E,,Public,24 hours daily,,,,,,2,,,ChargePoint Network,http://www.chargepoint.com/,GPS,47.614752,-122.200829,2023-11-10,99409,2023-11-10 00:17:23 UTC,,,,2018-06-22,,,,,J1772,US,,,,Public,,public,,,,,,,,,,,,,,,,,,,,,,,,,,,,,false
ELEC,LINC SQUARE EXP LSS P2 92-93,500 Bellevue Way NE,,Bellevue,WA,98004,,888-758-4389,E,,Public,24 hours daily,,,,,,2,,,ChargePoint Network,http://www.chargepoint.com/,GPS,47.614649,-122.200751,2023-11-10,99410,2023-11-10 00:17:23 UTC,,,,2018-06-22,,,,,J1772,US,,,,Public,,public,,,,,,,,,,,,,,,,,,,,,,,,,,,,,false
ELEC,DC CORRIDOR SEAHAWK 12A,338 Weller St Bridge,,Seattle,WA,98134,,888-758-4389,T,2022-09-09,TEMPORARILY UNAVAILABLE (Public),24 hours daily,,,,,,,1,,ChargePoint Network,http://www.chargepoint.com/,GPS,47.597446,-122.330456,2023-11-10,99591,2023-11-10 00:13:45 UTC,,,,2018-07-04,,,,,CHADEMO J1772COMBO,US,,,,TEMPORAIREMENT SUSPENDU (Public),,public,,,,,,,,,,,,,,,,,,,,,,,,,,,,,false
ELEC,TAC PW PARKING PACIFIC PLAZA,1301 Pacific Ave,,Tacoma,WA,98402,,888-758-4389,E,,Public,24 hours daily,,,,,,2,,,ChargePoint Network,http://www.chargepoint.com/,GPS,47.251655,-122.437656,2023-11-10,99621,2023-11-10 00:19:49 UTC,,,,2018-07-06,,,,,J1772,US,,,,Public,,public,,,,,,,,,,,,,,,,,,,,,,,,,,,,,false
ELEC,QBRC QBRC 1,78 SR 115,,Ocean Shores,WA,98569,,888-758-4389,E,,Public,24 hours daily,,,,,,2,,,ChargePoint Network,http://www.chargepoint.com/,GPS,47.042642,-124.170682,2023-11-10,99705,2023-11-10 00:18:58 UTC,,,,2018-07-12,,,,,J1772,US,,,,Public,,public,,,,,,,,,,,,,,,,,,,,,,,,,,,,,false
ELEC,PORT VANCOUVER ADMIN,3103 NW Lower River Rd,,Vancouver,WA,98660,,888-758-4389,T,2023-01-25,TEMPORARILY UNAVAILABLE (Public),24 hours daily,,,,,,2,,,ChargePoint Network,http://www.chargepoint.com/,GPS,45.643429,-122.704219,2023-11-10,99807,2023-11-10 00:21:40 UTC,,,,2018-07-19,,,,,J1772,US,,,,TEMPORAIREMENT SUSPENDU (Public),,public,,,,,,,,,,,,,,,,,,,,,,,,,,,,,false
ELEC,BLOCK C LOT 8 STARBUCKS WOODI,13780 NE 175th St,,Woodinville,WA,98072,,888-758-4389,E,,Public,24 hours daily,,,,,,2,,,ChargePoint Network,http://www.chargepoint.com/,GPS,47.754851,-122.155601,2023-11-10,100012,2023-11-10 00:22:33 UTC,,,,2018-07-31,,,,,J1772,US,,,,Public,,public,,,,,,,,,,,,,,,,,,,,,,,,,,,,,false
ELEC,ESSEX HIGHLANDS,1460 NE Hawthorne Street,,Issaquah,WA,98029,,888-758-4389,E,,Public,24 hours daily,,,,,,2,,,ChargePoint Network,http://www.chargepoint.com/,GPS,47.545075,-122.008911,2023-11-10,100055,2023-11-10 00:13:36 UTC,,,,2018-08-02,,,,,J1772,US,,,,Public,,public,,,,,,,,,,,,,,,,,,,,,,,,,,,,,false
ELEC,BLACKRIVER JSH DUAL #1,923 Powell Ave SW,,Renton,WA,98057,,888-758-4389,E,,Public,24 hours daily,,,,,,2,,,ChargePoint Network,http://www.chargepoint.com/,GPS,47.471546,-122.232002,2023-11-10,100346,2023-11-10 00:22:37 UTC,,,,2018-08-11,,,,,J1772,US,,,,Public,,public,,,,,,,,,,,,,,,,,,,,,,,,,,,,,false
ELEC,BLACKRIVER BLACKRIVER #3,620 Naches Ave SW,,Renton,WA,98057,,888-758-4389,E,,Public,24 hours daily,,,,,,1,,,ChargePoint Network,http://www.chargepoint.com/,GPS,47.474427,-122.233381,2023-11-10,100365,2023-11-10 00:22:37 UTC,,,,2018-08-12,,,,,J1772,US,,,,Public,,public,,,,,,,,,,,,,,,,,,,,,,,,,,,,,false
ELEC,CHARGEPOINT CENTRAL MARKET,20148 10th Ave. NE,,Poulsbo,WA,98370,,888-758-4389,E,,Public,24 hours daily,,,,,,2,,,ChargePoint Network,http://www.chargepoint.com/,GPS,47.746624,-122.636916,2023-11-10,100402,2023-11-10 00:07:46 UTC,,,,2018-08-16,,,,,J1772,US,,,,Public,,public,,,,,,,,,,,,,,,,,,,,,,,,,,,,,false
ELEC,MTE EDMONDS SCHOOL,21975 52nd Ave W,,Mountlake Terrace,WA,98043,,888-758-4389,E,,Public,24 hours daily,,,,,,2,,,ChargePoint Network,http://www.chargepoint.com/,GPS,47.798901,-122.3025,2023-11-10,100416,2023-11-10 00:20:52 UTC,,,,2018-08-17,,,,,J1772,US,,,,Public,,public,,,,,,,,,,,,,,,,,,,,,,,,,,,,,false
ELEC,"Aberdeen, WA - Tesla Supercharger",416 Wishkah Street,,Aberdeen,WA,98520,,877-798-3752,E,,Public,24 hours daily,,,,,,,8,,Tesla,https://www.tesla.com/supercharger,GPS,46.976679,-123.813485,2023-07-01,102483,2023-07-14 19:41:28 UTC,P,,,2017-01-15,,,,,TESLA,US,,,,Public,,public,,,,,,,,,,,,,,,,,,,,,,,,,,,,,false
ELEC,Angel of the Winds Casino - Tesla Supercharger,3438 Stoluckquamish Lane,,Arlington,WA,98223,,877-798-3752,E,,Public,24 hours daily,,,,,,,16,,Tesla,https://www.tesla.com/supercharger,GPS,48.212441,-122.183491,2023-07-01,102484,2023-07-14 19:41:28 UTC,P,,,2017-03-01,,,,,TESLA,US,,,,Public,,public,,,OTHER_ENTERTAINMENT,,,,,,,,,,,,,,,,,,,,,,,,,,false
ELEC,Fairfield Inn & Suites Burlington - Tesla Supercharger,9384 Old Highway 99 North,,Burlington,WA,98233,,877-798-3752,E,,Public,24 hours daily,,,,,,,10,,Tesla,https://www.tesla.com/supercharger,200-8,48.509743,-122.338681,2023-07-01,102485,2023-07-14 19:41:28 UTC,P,,,2013-06-01,,,,,TESLA,US,,,,Public,,public,,,,,,,,,,,,,,,,,,,,,,,,,,,,,false
ELEC,Centralia Outlets - Tesla Supercharger,1200 Lum Rd,,Centralia,WA,98531,,877-798-3752,E,,Public,24 hours daily,,,,,,,20,,Tesla,https://www.tesla.com/supercharger,200-9,46.729872,-122.977392,2023-07-01,102486,2023-07-14 19:41:28 UTC,P,,,2013-06-01,,,,,TESLA,US,,,,Public,,public,,,,,,,,,,,,,,,,,,,,,,,,,,,,,false
ELEC,Holiday Inn Express - Tesla Supercharger,1620 Canyon Rd,,Ellensburg,WA,98926,,877-798-3752,E,,Public,24 hours daily,,,,,,,5,,Tesla,https://www.tesla.com/supercharger,GPS,46.976918,-120.54162,2023-07-01,102487,2023-07-14 19:41:28 UTC,P,,,2013-12-15,,,,,TESLA,US,,,,Public,,public,,,,,,,,,,,,,,,,,,,,,,,,,,,,,false
ELEC,Fred Meyer - Tesla Supercharger,2811 West 10th Ave.,,Kennewick,WA,99336,,877-798-3752,E,,Public,24 hours daily,,,,,,,8,,Tesla,https://www.tesla.com/supercharger,200-9,46.198035,-119.162687,2023-07-01,102488,2023-07-14 19:41:28 UTC,P,,,2015-08-01,,,,,TESLA,US,,,,Public,,public,,,,,,,,,,,,,,,,,,,,,,,,,,,,,false
ELEC,Fred Meyer - Tesla Supercharger,2902 164th Street SW,,Lynnwood,WA,98087,,877-798-3752,E,,Public,24 hours daily,,,,,,,10,,Tesla,https://www.tesla.com/supercharger,200-9,47.846714,-122.271389,2023-07-01,102489,2023-07-14 19:41:28 UTC,P,,,2018-07-23,,,,,TESLA,US,,,,Public,,public,,,,,,,,,,,,,,,,,,,,,,,,,,,,,false
ELEC,Best Western Plus Bronco Inn - Tesla Supercharger,105 W Galbreath Way,,Ritzville,WA,99169,,877-798-3752,E,,Public,24 hours daily,,,,,,,4,,Tesla,https://www.tesla.com/supercharger,200-9,47.116294,-118.368328,2023-07-01,102491,2023-07-14 19:41:28 UTC,P,,,2014-06-15,,,,,TESLA,US,,,,Public,,public,,,,,,,,,,,,,,,,,,,,,,,,,,,,,false
ELEC,Holiday Inn Express & Suites - Tesla Supercharger,1441 E Washington Street,,Sequim,WA,98382,,877-798-3752,E,,Public,24 hours daily,,,,,,,8,,Tesla,https://www.tesla.com/supercharger,200-9,48.071064,-123.074581,2023-07-01,102492,2023-07-14 19:41:28 UTC,P,,,2017-09-01,,,,,TESLA,US,,,,Public,,public,,,,,,,,,,,,,,,,,,,,,,,,,,,,,false
ELEC,Fred Meyer Salmon Creek - Tesla Supercharger,800 NE Tenney Road,,Vancouver,WA,98685,,877-798-3752,E,,Public,24 hours daily,,,,,,,12,,Tesla,https://www.tesla.com/supercharger,200-9,45.721613,-122.663762,2023-07-01,102493,2023-07-14 19:41:28 UTC,P,,,2018-07-23,,,,,TESLA,US,,,,Public,,public,,,,,,,,,,,,,,,,,,,,,,,,,,,,,false
ELEC,Dan's Food Market - Tesla Supercharger,1329 US-2,,Leavenworth,WA,98826,,877-798-3752,E,,Public,24 hours daily,,,,,,,16,,Tesla,https://www.tesla.com/supercharger,200-9,47.598476,-120.656055,2023-07-01,102594,2023-07-14 19:41:28 UTC,P,,,2018-07-01,,,,,TESLA,US,,,,Public,,public,,,GROCERY,,,,,,,,,,,,,,,,,,,,,,,,,,false
ELEC,Olympic National Park - Sol Duc Hot Springs Resort,12076 Sol Duc Hot Springs Rd,,Port Angeles,WA,98363,,888-896-3818  360-565-3130,E,,Public,24 hours daily,,,,,,2,,,Non-Networked,,200-9,47.96937,-123.86338,2023-09-14,103554,2023-09-14 14:01:49 UTC,P,,,2018-09-01,,,,,J1772,US,,,,Public,,public,,,NATL_PARK,,,,,,,,,,,,,,,,,false,,,,,Olympic National Park,,,,false
ELEC,DC CORRIDOR NORTHGATE DC1,9800 4th Ave NE,,Seattle,WA,98115,,888-758-4389,T,2022-09-18,TEMPORARILY UNAVAILABLE (Public),24 hours daily,,,,,,,1,,ChargePoint Network,http://www.chargepoint.com/,GPS,47.700774,-122.323775,2023-11-10,103573,2023-11-10 00:13:41 UTC,,,,2018-09-27,,,,,CHADEMO J1772COMBO,US,,,,TEMPORAIREMENT SUSPENDU (Public),,public,,,,,,,,,,,,,,,,,,,,,,,,,,,,,false
ELEC,Yakima,51 Firing Center Rd,,Yakima,WA,98901,,855-900-7584,E,,Public,24 hours daily,,,,,,1,1,,SHELL_RECHARGE,https://shellrecharge.com/en-us/solutions,200-9,46.677586,-120.47913,2023-11-10,103581,2023-11-10 01:11:52 UTC,,,,2018-09-27,,,,,CHADEMO J1772 J1772COMBO,US,,,,Public,,public,,,,,,,,,,,,,,,,,,,,,,,,,,,,,false
ELEC,Pasco,2411 W Court St,,pasco,WA,99301,,855-900-7584,E,,Public,24 hours daily,,,,,,1,1,,SHELL_RECHARGE,https://shellrecharge.com/en-us/solutions,200-9,46.242178,-119.124215,2023-11-10,103586,2023-11-10 01:11:52 UTC,,,,2018-09-27,,,,,CHADEMO J1772 J1772COMBO,US,,,,Public,,public,,,,,,,,,,,,,,,,,,,,,,,,,,,,,false
ELEC,Wandermere,438 E Hasting Rd.,,Spokane,WA,99218,,855-900-7584,E,,Public,24 hours daily,,,,,,,1,,SHELL_RECHARGE,https://shellrecharge.com/en-us/solutions,200-9,47.768906,-117.401929,2023-11-10,103612,2023-11-10 01:11:54 UTC,,,,2018-09-27,,,,,CHADEMO J1772COMBO,US,,,,Public,,public,,,,,,,,,,,,,,,,,,,,,,,,,,,,,false
ELEC,1101 WESTLAKE FB WESTLAKE 2,1101 Westlake Ave N,,Seattle,WA,98109,,888-758-4389,E,,Public,24 hours daily,,,,,,2,,,ChargePoint Network,http://www.chargepoint.com/,GPS,47.6289,-122.341536,2023-11-10,103654,2023-11-10 00:16:50 UTC,,,,2018-09-29,,,,,J1772,US,,,,Public,,public,,,,,,,,,,,,,,,,,,,,,,,,,,,,,false
ELEC,STEVENS PASS SPMR DUAL #2,Stevens Pass Mountain Resort,,Skykomish,WA,98288,,888-758-4389,E,,Public,24 hours daily,,,,,,2,,,ChargePoint Network,http://www.chargepoint.com/,GPS,47.746319,-121.089984,2023-11-10,103884,2023-11-10 00:21:54 UTC,,,,2018-10-05,,,,,J1772,US,,,,Public,,public,,,,,,,,,,,,,,,,,,,,,,,,,,,,,false
ELEC,STEVENS PASS SPMR DUAL #1,Stevens Pass Mountain Resort  Skykomish Washi,,Skykomish,WA,98288,,888-758-4389,E,,Public,24 hours daily,,,,,,2,,,ChargePoint Network,http://www.chargepoint.com/,GPS,47.746482,-121.090001,2023-11-10,103885,2023-11-10 00:21:33 UTC,,,,2018-10-05,,,,,J1772,US,,,,Public,,public,,,,,,,,,,,,,,,,,,,,,,,,,,,,,false
ELEC,Seabrook Street Parking,169 Blackberry St,,Copalis Crossing,WA,98356,,360-276-0265,E,,Public,24 hours daily,,,,,,1,,,Non-Networked,,GPS,47.195359,-124.196082,2022-01-10,103924,2022-02-10 19:42:29 UTC,P,,,2014-02-01,,,,,J1772,US,,,,Public,,public,,,STREET_PARKING,,,,,,,Free,,,,,,,,,,false,,,,,,,,LD,false
ELEC,Gull Wing Inn,4852 Pacific Ave,,Moclips,WA,98562,,360-276-0014,E,,Public,24 hours daily,,,,,,1,,,Non-Networked,,GPS,47.24044,-124.216904,2022-06-14,103925,2023-02-14 15:54:11 UTC,P,,,2017-07-01,,,,,J1772,US,,,,Public,,public,,,HOTEL,,,,,,,Free,,,,,,,,,,false,,,,,,,,LD,false
ELEC,Washington State Department of Ecology - Public Parking Lot,4601 N Monroe St,,Spokane,WA,99205,,509-329-3400  888-758-4389,E,,Public,24 hours daily,,,,,,6,,,Non-Networked,,GPS,47.700624,-117.425573,2022-06-14,104058,2023-02-14 15:54:11 UTC,P,,,2018-10-01,,,,,J1772,US,,,,Public,,public,,,PARKING_LOT,,,,,,,Free,,,,,,,,,,false,,,,,,,,LD,false
ELEC,AMLI MARK 24 MARK 24 1,2428 NW Market St,,Seattle,WA,98107,,888-758-4389,T,2023-08-06,TEMPORARILY UNAVAILABLE (Public),24 hours daily,,,,,,2,,,ChargePoint Network,http://www.chargepoint.com/,GPS,47.668955,-122.388808,2023-11-10,104162,2023-11-10 00:07:24 UTC,,,,2018-10-15,,,,,J1772,US,,,,TEMPORAIREMENT SUSPENDU (Public),,public,,,,,,,,,,,,,,,,,,,,,,,,,,,,,false
ELEC,Ilani Casino Resort,3710 NW 319th St,,Ridgefield,WA,98642,,877-464-5264,E,,Public,24 hours daily,,,,,,5,,,Non-Networked,,GPS,45.852337,-122.708397,2023-01-10,104265,2023-02-14 15:54:11 UTC,P,,,2018-10-01,,,,,J1772,US,,,,Public,,public,,,HOTEL,,,,,,,Free,,,,,,,,,,false,,,,,,,,LD,false
ELEC,DC CORRIDOR SEATTLE MINI,11536 Lake City Way NE,,Seattle,WA,98125,,888-758-4389,T,2023-01-21,TEMPORARILY UNAVAILABLE (Public),24 hours daily,,,,,,,1,,ChargePoint Network,http://www.chargepoint.com/,GPS,47.713224,-122.298415,2023-11-10,104285,2023-11-10 00:13:41 UTC,,,,2018-10-20,,,,,CHADEMO J1772COMBO,US,,,,TEMPORAIREMENT SUSPENDU (Public),,public,,,,,,,,,,,,,,,,,,,,,,,,,,,,,false
ELEC,DC CORRIDOR PAC SCI L2,200 2nd Ave N,,Seattle,WA,98109,,888-758-4389,E,,Public,24 hours daily,,,,,,2,,,ChargePoint Network,http://www.chargepoint.com/,GPS,47.619056,-122.352371,2023-11-10,104286,2023-11-10 00:37:36 UTC,,,,2018-10-20,,,,,J1772,US,,,,Public,,public,,,,,,,,,,,,,,,,,,,,,,,,,,,,,false
ELEC,UWMC SURGERY STATION 2,1959 NE Pacific St,,Seattle,WA,98195,,888-758-4389,T,2023-09-15,TEMPORARILY UNAVAILABLE (Public),24 hours daily,,,,,,2,,,ChargePoint Network,http://www.chargepoint.com/,GPS,47.649948,-122.30746,2023-11-10,104371,2023-11-10 00:23:09 UTC,,,,2018-10-25,,,,,J1772,US,,,,TEMPORAIREMENT SUSPENDU (Public),,public,,,,,,,,,,,,,,,,,,,,,,,,,,,,,false
ELEC,BMGF BMGF EV 02,500 5th Ave N,,Seattle,WA,98109,,888-758-4389,E,,Public,24 hours daily,,,,,,2,,,ChargePoint Network,http://www.chargepoint.com/,GPS,47.623424,-122.345872,2023-11-10,104381,2023-11-10 00:23:10 UTC,,,,2018-10-26,,,,,J1772,US,,,,Public,,public,,,,,,,,,,,,,,,,,,,,,,,,,,,,,false
ELEC,Pacific Raceways,31001 144th Ave SE,,Kent,WA,98042,,253-639-5927,E,,Public - Call ahead,By appointment only; J1772 adapter available,,,,,,2,,,Non-Networked,,GPS,47.320954,-122.13822,2022-08-10,104408,2023-02-14 15:54:11 UTC,P,,,2017-04-01,,,,,TESLA,US,,,,Public - Appeler à l'avance,,public,CALL,,OTHER_ENTERTAINMENT,,,,,,,Free,,,,,,,,,,true,,,,,,,,LD,false
ELEC,Fred Meyer - Tesla Supercharger,6100 East Lake Sammamish Parkway SE,,Issaquah,WA,98029,,877-798-3752,E,,Public,24 hours daily,,,,,,,8,,Tesla,https://www.tesla.com/supercharger,GPS,47.548081,-122.039955,2023-07-01,104446,2023-07-14 19:41:28 UTC,P,,,2018-10-01,,,,,TESLA,US,,,,Public,,public,,,GROCERY,,,,,,,,,,,,,,,,,,,,,,,,,,false
ELEC,Bedrooms & More,324 NE 45th St,,Seattle,WA,98105,,206-633-4494,E,,Public,"9am-8pm M-F, 9am-6pm Sat, 10am-6pm Sun; for customer use only",,,,,,1,,,Non-Networked,,200-9,47.661582,-122.32426,2023-06-12,104475,2023-06-12 16:56:16 UTC,P,,,2018-10-01,,,,,J1772,US,,,,Public,,public,,,SHOPPING_CENTER,,,,,,,Free for customers,,,,,,,,,,true,,,,,,,,LD,false
ELEC,ISD411 ADMIN CENTER 1,5150 220th Ave SE,,Issaquah,WA,98029,,888-758-4389,E,,Public,24 hours daily,,,,,,2,,,ChargePoint Network,http://www.chargepoint.com/,GPS,47.55493,-122.047455,2023-11-10,104574,2023-11-10 00:23:21 UTC,,,,2018-11-08,,,,,J1772,US,,,,Public,,public,,,,,,,,,,,,,,,,,,,,,,,,,,,,,false
ELEC,Guy Waring Guest House,110 Riverside Ave,,Winthrop,WA,98862,,425-742-0843,E,,Public,24 hours daily; for guest use only,,,,,,1,,,Non-Networked,,200-8,48.479357,-120.186033,2022-08-10,104823,2023-02-14 15:54:11 UTC,P,,,2018-01-01,,,,,J1772,US,,,,Public,,public,,,HOTEL,,,,,,,Free,,,,,,,,,,true,,,,,,,,LD,false
ELEC,Grand Mound Liquor Store,19947 Old Highway 99 SW,,Rochester,WA,98579,,360-273-6748,E,,Public,24 hours daily,,,,,,2,,,Non-Networked,,GPS,46.798453,-123.0123,2022-06-14,104981,2023-02-14 15:54:11 UTC,P,,,2017-01-01,,,,,J1772,US,,,,Public,,public,,,SHOPPING_CENTER,,,,,,,Free,,,,,,,,,,false,,,,,,,,LD,false
ELEC,KING COUNTY DES FACTORIA TRANSF,13800 SE 32nd St,,Bellevue,WA,98005,,888-758-4389,E,,Public,24 hours daily,,,,,,2,,,ChargePoint Network,http://www.chargepoint.com/,GPS,47.582336,-122.158644,2023-11-10,105066,2023-11-10 00:16:26 UTC,,,,2018-12-01,,,,,J1772,US,,,,Public,,public,,,,,,,,,,,,,,,,,,,,,,,,,,,,,false
ELEC,ALJOYA 1 EV CHARGER,2430 76th Ave SE,,Mercer Island,WA,98040,,888-758-4389,E,,Public,24 hours daily,,,,,,2,,,ChargePoint Network,http://www.chargepoint.com/,GPS,47.588122,-122.237206,2023-11-10,105118,2023-11-10 00:23:38 UTC,,,,2018-12-06,,,,,J1772,US,,,,Public,,public,,,,,,,,,,,,,,,,,,,,,,,,,,,,,false
ELEC,Colville City Hall,158 E 1st Ave,,Colville,WA,99114,,855-900-7584,E,,Public,24 hours daily,,,,,,2,,,SHELL_RECHARGE,https://shellrecharge.com/en-us/solutions,200-9,48.543915,-117.904797,2023-11-10,105123,2023-11-10 01:11:54 UTC,,,,2018-12-06,,,,,J1772,US,,,,Public,,public,,,,,,,,,,,,,,,,,,,,,,,,,,,,,false
ELEC,INSIGNIA 953 215 216,583 Battery St,,Seattle,WA,98121,,888-758-4389,E,,Public,24 hours daily,,,,,,2,,,ChargePoint Network,http://www.chargepoint.com/,GPS,47.616992,-122.343984,2023-11-10,105150,2023-11-10 00:14:07 UTC,,,,2018-12-08,,,,,J1772,US,,,,Public,,public,,,,,,,,,,,,,,,,,,,,,,,,,,,,,false
ELEC,Harvest Chevrolet,1600 E Yakima Ave,,Yakima,WA,98901,,509-731-3938,E,,Public - Call ahead,24 hours daily,,,,,,2,1,,Non-Networked,,GPS,46.604239,-120.481583,2022-06-14,105361,2023-02-14 15:54:11 UTC,P,,,2018-12-01,,,,,J1772 J1772COMBO,US,,,,Public - Appeler à l'avance,,public,CALL,,CAR_DEALER,,,,,,,Free,,,,,,,,,,false,,,,,,,,LD,false
ELEC,Cascade Chevrolet,148 Easy St,,Wenatchee,WA,98801,,509-888-2985,E,,Public - Call ahead,Dealership business hours; for Chevrolet use only,,,,,,1,1,,Non-Networked,,GPS,47.467463,-120.336918,2022-09-14,105362,2023-02-14 15:54:11 UTC,P,,,2018-12-01,,,,,J1772 J1772COMBO,US,,,,Public - Appeler à l'avance,,public,CALL,,CAR_DEALER,,,,,,,Free,,,,,,,,,,true,,,,,,,,LD,false
ELEC,Angel of the Winds Casino - Tesla Destination,3438 Stoluckquamish Ln,,Arlington,WA,98223,,360-474-9740  877-798-3752,E,,Public,,,,,,,3,,,Tesla Destination,https://www.tesla.com/destination-charging,200-9,48.214249,-122.184142,2022-10-06,116073,2023-01-18 15:15:20 UTC,P,,,2016-11-01,,,,,TESLA,US,,,,Public,,public,,,OTHER_ENTERTAINMENT,,,,,,,Free,,,,,,,,,,,,,,,,,,,false
ELEC,Alexander's Lodge & Restaurant - Tesla Destination,37515 SR 706 E,,Ashford,WA,98304,,360-569-2300  877-798-3752,E,,Public,,,,,,,2,,,Tesla Destination,https://www.tesla.com/destination-charging,200-9,46.751382,-121.937189,2022-10-06,116074,2023-01-18 15:15:20 UTC,P,,,2016-01-13,,,,,TESLA,US,,,,Public,,public,,,HOTEL,,,,,,,Free,,,,,,,,,,,,,,,,,,,false
ELEC,Courtyard by Marriott Seattle Bellevue/Downtown - Tesla Destination,11010 NE 8th St,,Bellevue,WA,98004,,425-454-5888  877-798-3752,E,,Public,,,,,,,2,,,Tesla Destination,https://www.tesla.com/destination-charging,200-9,47.617601,-122.193492,2022-10-06,116075,2023-01-18 15:15:20 UTC,P,,,2017-02-24,,,,,TESLA,US,,,,Public,,public,,,HOTEL,,,,,,,Free,,,,,,,,,,,,,,,,,,,false
ELEC,Marriott Bellevue - Tesla Destination,200 110th Ave,,Bellevue,WA,98004,,425-214-7600  877-798-3752,E,,Public,,,,,,,3,,,Tesla Destination,https://www.tesla.com/destination-charging,200-9,47.611844,-122.193618,2022-10-06,116076,2023-01-18 15:15:20 UTC,P,,,2015-10-06,,,,,J1772 TESLA,US,,,,Public,,public,,,HOTEL,,,,,,,Free,,,,,,,,,,,,,,,,,,,false
ELEC,Marriott AC Bellevue - Tesla Destination,208 106th Pl NE,,Bellevue,WA,98004,,425-625-2450  877-798-3752,E,,Public,,,,,,,4,,,Tesla Destination,https://www.tesla.com/destination-charging,200-8,47.612345,-122.197702,2022-10-06,116077,2023-01-18 15:15:20 UTC,P,,,2017-08-29,,,,,J1772 TESLA,US,,,,Public,,public,,,HOTEL,,,,,,,Free,,,,,,,,,,,,,,,,,,,false
ELEC,Hilton Bellevue - Tesla Destination,300 112th Ave SE,,Bellevue,WA,98004,,425-455-1300  877-798-3752,E,,Public,,,,,,,2,,,Tesla Destination,https://www.tesla.com/destination-charging,200-8,47.607592,-122.189582,2022-10-06,116078,2023-01-18 15:15:20 UTC,P,,,2015-10-02,,,,,TESLA,US,,,,Public,,public,,,HOTEL,,,,,,,Free,,,,,,,,,,,,,,,,,,,false
ELEC,Hotel Bellwether - Tesla Destination,1 Bellwether Way,,Bellingham,WA,98225,,360-392-3100  877-798-3752,E,,Public,,,,,,,3,,,Tesla Destination,https://www.tesla.com/destination-charging,200-9,48.754197,-122.496675,2022-10-06,116079,2023-01-18 15:15:20 UTC,P,,,2015-09-24,,,,,J1772 TESLA,US,,,,Public,,public,,,HOTEL,,,,,,,Free,,,,,,,,,,,,,,,,,,,false
ELEC,Best Western Plus Heritage Inn - Tesla Destination,151 McLeod Rd,,Bellingham,WA,98226,,360-647-1912  877-798-3752,E,,Public,,,,,,,1,,,Tesla Destination,https://www.tesla.com/destination-charging,GPS,48.783141,-122.484001,2022-10-06,116080,2023-01-18 15:15:20 UTC,P,,,2015-02-13,,,,,TESLA,US,,,,Public,,public,,,HOTEL,,,,,,,Free,,,,,,,,,,,,,,,,,,,false
ELEC,Oxford Suites Bellingham - Tesla Destination,4051 Meridian St,,Bellingham,WA,98226,,542-610-3401  877-798-3752,E,,Public,,,,,,,2,,,Tesla Destination,https://www.tesla.com/destination-charging,200-9,48.788325,-122.48746,2022-10-06,116081,2023-01-18 15:15:20 UTC,P,,,2016-03-15,,,,,J1772 TESLA,US,,,,Public,,public,,,HOTEL,,,,,,,Free,,,,,,,,,,,,,,,,,,,false
ELEC,Hamilton Cellars - Tesla Destination,55410 N Sunset Rd,,Benton City,WA,99320,,509-628-8227  877-798-3752,E,,Public,,,,,,,3,,,Tesla Destination,https://www.tesla.com/destination-charging,200-8,46.2960713,-119.4514867,2022-10-06,116082,2023-01-18 15:15:20 UTC,P,,,2015-07-14,,,,,J1772 TESLA,US,,,,Public,,public,,,BREWERY_DISTILLERY_WINERY,,,,,,,Free,,,,,,,,,,,,,,,,,,,false
ELEC,Semiahmoo Resort & Spa - Tesla Destination,9565 Semiahmoo Pkwy,,Blaine,WA,98230,,360-318-2000  877-798-3752,E,,Public,,,,,,,1,,,Tesla Destination,https://www.tesla.com/destination-charging,200-9,48.990486,-122.774447,2022-10-06,116083,2023-01-18 15:15:20 UTC,P,,,2015-01-28,,,,,TESLA,US,,,,Public,,public,,,HOTEL,,,,,,,Free,,,,,,,,,,,,,,,,,,,false
